"Country","City","Latitude","Longitude"
"ad","andorra la vella",42.5,1.5166667
"ad","canillo",42.5666667,1.6
"ad","encamp",42.5333333,1.5833333
"ad","la massana",42.55,1.5166667
"ad","les escaldes",42.5,1.5333333
"ad","ordino",42.55,1.5333333
"ad","sant julia de loria",42.4666667,1.5
"al","bajram curri",42.3572222,20.0730556
"al","ballsh",40.5988889,19.7347222
"al","berat",40.7058333,19.9522222
"al","bilisht",40.6275,20.99
"al","bulqize",41.4916667,20.2219444
"al","burrel",41.6102778,20.0088889
"al","cerrik",41.0316667,19.9758333
"al","corovode",40.5041667,20.2272222
"al","delvine",39.9511111,20.0977778
"al","durres",41.3230556,19.4413889
"al","elbasan",41.1125,20.0822222
"al","erseke",40.3377778,20.6788889
"al","fier",40.7238889,19.5561111
"al","fierze",42.2647222,20.0269444
"al","fierze",42.2605556,20.0169444
"al","fushe-arrez",42.0622222,20.0166667
"al","fushe-kruje",41.4783333,19.7177778
"al","gjirokaster",40.0758333,20.1388889
"al","gramsh",40.8697222,20.1844444
"al","himare",40.1016667,19.7447222
"al","kamze",41.3816667,19.7602778
"al","kavaje",41.1855556,19.5569444
"al","kelcyre",40.3130556,20.1894444
"al","kerrabe",41.2155556,19.9713889
"al","klos",41.4844444,20.1080556
"al","konispol",39.6588889,20.1813889
"al","koplik",42.2136111,19.4363889
"al","korce",40.6186111,20.7808333
"al","kraste",41.4225,20.205
"al","kruje",41.5091667,19.7927778
"al","kucove",40.8002778,19.9166667
"al","kukes",42.0769444,20.4219444
"al","kurbnesh",41.7797222,20.0836111
"al","lac",41.6355556,19.7130556
"al","leskovik",40.1513889,20.5972222
"al","lezhe",41.7836111,19.6436111
"al","libohove",40.0311111,20.2630556
"al","librazhd",41.1794444,20.315
"al","lushnje",40.9419444,19.705
"al","maliq",40.7058333,20.6997222
"al","mamurras",41.5775,19.6922222
"al","memaliaj",40.3458333,19.9791667
"al","milot",41.6802778,19.7244444
"al","orikum",40.3252778,19.4713889
"al","patos",40.6833333,19.6194444
"al","peqin",41.0461111,19.7511111
"al","permet",40.2336111,20.3516667
"al","perrenjas",41.0730556,20.5488889
"al","peshkopi",41.685,20.4288889
"al","pogradec",40.9025,20.6525
"al","polican",40.6122222,20.0980556
"al","puke",42.0444444,19.8997222
"al","roskovec",40.7375,19.7022222
"al","rreshen",41.7675,19.8755556
"al","rrogozhine",41.0763889,19.6652778
"al","rubik",41.7744444,19.7861111
"al","sarande",39.8755556,20.0052778
"al","selenice",40.5305556,19.6358333
"al","shengjin",41.8136111,19.5938889
"al","shijak",41.3455556,19.5672222
"al","shkoder",42.0675,19.5130556
"al","tepelene",40.2958333,20.0191667
"al","tirana",41.3275,19.8188889
"al","ulze",41.6827778,19.8933333
"al","vlore",40.4666667,19.4897222
"al","vore",41.3908333,19.655
"am","abovyan",40.0488889,44.5475
"am","abovyan",40.2691667,44.6244444
"am","agarakadzor",39.7363889,45.3455556
"am","agarak",40.3077778,44.2847222
"am","agarak",41.0105556,44.4675
"am","agarak",39.2038889,46.5472222
"am","aghavnadzor",40.5841667,44.6913889
"am","aghavnadzor",39.7836111,45.2280556
"am","aghavnatun",40.2336111,44.2513889
"am","akhuryan",40.7813889,43.8963889
"am","aknalich",40.1430556,44.1483333
"am","aknashen",40.0958333,44.2861111
"am","alaverdi",41.1305556,44.6519444
"am","amasia",40.9466667,43.7813889
"am","amberd",40.2416667,44.2727778
"am","anushavan",40.6419444,43.9822222
"am","apaga",40.0961111,44.2511111
"am","aparan",40.5961111,44.3536111
"am","aragats",40.3330556,43.6580556
"am","aragats",40.2183333,44.2327778
"am","aragyukh",40.4025,44.5436111
"am","aramus",40.2511111,44.6630556
"am","arapi",40.7797222,43.8005556
"am","ararat",39.8094444,44.7144444
"am","arazap",40.0427778,44.1458333
"am","archis",41.1641667,44.8725
"am","areni",39.7208333,45.1838889
"am","arevabuyr",40.0361111,44.4688889
"am","arevashat",40.1416667,44.3708333
"am","arevashogh",40.8613889,44.2727778
"am","arevik",40.1005556,44.0969444
"am","arevik",40.7361111,43.8927778
"am","arevshat",40.0391667,44.5416667
"am","arevshat",40.6486111,44.0444444
"am","argavand",40.1580556,44.44
"am","argavand",40.0608333,44.0952778
"am","argel",40.3794444,44.5994444
"am","armash",39.7666667,44.8083333
"am","armavir",40.0897222,44.0483333
"am","arshaluys",40.1688889,44.2141667
"am","artashat",39.9538889,44.5505556
"am","arteni",40.2983333,43.7541667
"am","artimet",40.1513889,44.2663889
"am","artsvaberd",40.8336111,45.4711111
"am","artsvanist",40.1544444,45.5022222
"am","arzakan",40.4494444,44.6063889
"am","arzni",40.2963889,44.5958333
"am","ashnak",40.3275,43.9166667
"am","ashtarak",40.3016667,44.3591667
"am","astghadzor",40.1238889,45.3566667
"am","avshar",39.8405556,44.6836111
"am","aygavan",39.8647222,44.6702778
"am","aygedzor",39.4627778,46.4152778
"am","aygehovit",40.9744444,45.2519444
"am","aygek",40.1886111,44.3833333
"am","aygepat",39.95,44.6
"am","aygeshat",40.2355556,44.2866667
"am","aygeshat",40.0666667,44.0666667
"am","aygestan",40.0030556,44.5575
"am","aygezard",39.9458333,44.6088889
"am","aygut",40.6841667,45.1730556
"am","ayrum",41.195,44.8925
"am","ayrum",41.1716667,44.8191667
"am","azatamut",40.9758333,45.1980556
"am","azatan",40.7238889,43.8205556
"am","azatavan",39.9833333,44.5
"am","azatavan",40.1333333,44.0666667
"am","baghramyan",40.1908333,43.8494444
"am","bagratashen",41.2458333,44.8211111
"am","balahovit",40.2536111,44.6038889
"am","bambakashat",40.1144444,44.0122222
"am","bardzrashen",40.0852778,44.5786111
"am","bazum",40.8680556,44.4455556
"am","berdavan",41.2027778,45.0033333
"am","berd",40.8808333,45.3916667
"am","brnakot",39.4969444,45.9730556
"am","brun",39.5338889,46.3030556
"am","buzhakan",40.4552778,44.5205556
"am","byurakan",40.3413889,44.2736111
"am","byuravan",40.0161111,44.5186111
"am","byureghavan",40.3147222,44.5936111
"am","chambarak",40.5952778,45.3475
"am","chochkan",41.1861111,44.8313889
"am","dalar",39.9669444,44.5363889
"am","dalarik",40.2183333,43.8602778
"am","darakert",40.1058333,44.4138889
"am","darpas",40.8380556,44.4233333
"am","dashtavan",40.1016667,44.3905556
"am","ddmashen",40.5719444,44.8122222
"am","dilijan",40.7408333,44.8630556
"am","dimitrov",40.0080556,44.4880556
"am","doghs",40.2227778,44.2716667
"am","drakhtik",40.5688889,45.2319444
"am","dsegh",40.9633333,44.6516667
"am","dvin",40.02,44.5852778
"am","dzitankov",40.5155556,43.8133333
"am","dzoraghbyur",40.205,44.6430556
"am","dzoragyukh",40.1752778,45.175
"am","fantan",40.3941667,44.685
"am","fioletovo",40.7247222,44.7138889
"am","gagarin",40.5369444,44.8577778
"am","gandzak",40.3147222,45.1113889
"am","garni",40.1194444,44.7230556
"am","gavar",40.3588889,45.1266667
"am","gay",40.0838889,44.3055556
"am","geghamasar",40.3116667,45.68
"am","geghamavan",40.5619444,44.8827778
"am","geghanist",40.1497222,44.4344444
"am","getahovit",40.8958333,45.1313889
"am","getashen",40.0433333,43.9447222
"am","getazat",40.0380556,44.5638889
"am","ghukasavan",40.1261111,44.4177778
"am","gladzor",39.7783333,45.3477778
"am","gogaran",40.8955556,44.1991667
"am","goris",39.5077778,46.3386111
"am","gosh",40.7225,45.0033333
"am","griboyedov",40.1130556,44.2716667
"am","gyulagarak",40.9697222,44.4713889
"am","gyumri",40.7894444,43.8475
"am","haghartsin",40.7780556,44.9625
"am","hayanist",40.1197222,44.3775
"am","haykashen",40.0727778,44.3069444
"am","haykavan",40.7558333,43.77
"am","hnaberd",40.6427778,44.1444444
"am","hoktember",40.1361111,44.0138889
"am","horom",40.6541667,43.8822222
"am","hovtashat",40.1019444,44.3427778
"am","hovtashen",40.0244444,44.45
"am","hrazdan",40.5016667,44.7547222
"am","ijevan",40.8755556,45.1491667
"am","janfida",40.0455556,44.0208333
"am","jermuk",39.8416667,45.6722222
"am","jrahovit",40.0452778,44.4736111
"am","jrashen",40.7875,44.1972222
"am","jrashen",40.0547222,44.5133333
"am","kamaris",40.2358333,44.6938889
"am","kamo",40.8280556,43.9483333
"am","kanakeravan",40.2472222,44.5366667
"am","kapan",39.2011111,46.415
"am","kaputan",40.3244444,44.6938889
"am","karbi",40.3338889,44.3777778
"am","karchaghbyur",40.1638889,45.5722222
"am","kasakh",40.5333333,44.4166667
"am","khashtarak",40.9386111,45.1797222
"am","khndzoresk",39.5122222,46.4336111
"am","kosh",40.3072222,44.16
"am","lanjaghbyur",40.2730556,45.1444444
"am","lchashen",40.5202778,44.9308333
"am","lenughi",40.1238889,43.9652778
"am","lernakert",40.5669444,43.9361111
"am","lernanist",40.4675,44.7980556
"am","lernantsk",40.7955556,44.2783333
"am","lernapat",40.82,44.3972222
"am","lernavan",40.7883333,44.1844444
"am","lorut",40.9388889,44.7725
"am","lukashin",40.1758333,44.0186111
"am","madina",40.0802778,45.2511111
"am","maisyan",40.8530556,43.8294444
"am","malishka",39.7369444,45.3875
"am","maralik",40.5722222,43.8669444
"am","margahovit",40.7380556,44.6875
"am","margara",40.0336111,44.1738889
"am","marmarashen",40.0575,44.4711111
"am","marmashen",40.8375,43.7719444
"am","martuni",40.1447222,45.3063889
"am","masis",40.0138889,44.4858333
"am","mayakovski",40.2522222,44.6383333
"am","meghradzor",40.6147222,44.6522222
"am","meghrashen",40.6758333,43.9486111
"am","meghri",38.9022222,46.2383333
"am","merdzavan",40.1816667,44.3991667
"am","metsamor",40.0713889,44.2891667
"am","metsavan",41.2016667,44.2288889
"am","mets masrik",40.2186111,45.7694444
"am","mets parni",40.8372222,44.1091667
"am","mosesgegh",40.9063889,45.4913889
"am","mrganush",40.0286111,44.5586111
"am","mrgashat",40.1297222,44.0705556
"am","mrgashen",40.285,44.5422222
"am","mrgavan",39.9661111,44.5333333
"am","mrgavet",40.0283333,44.4827778
"am","musaler",40.1544444,44.3777778
"am","musayelyan",40.7652778,43.9908333
"am","myasnikyan",40.1775,43.9063889
"am","nalbandyan",40.0677778,43.9855556
"am","navur",40.8613889,45.3175
"am","nizami",40.0913889,44.4041667
"am","norakert",40.1922222,44.3466667
"am","noramarg",40.0236111,44.4244444
"am","nor armavir",40.0866667,43.99
"am","norashen",40.0041667,44.5947222
"am","norashen",41.1880556,44.3272222
"am","noratus",40.3822222,45.1783333
"am","nor geghi",40.3211111,44.5797222
"am","nor gyukh",40.2666667,44.6563889
"am","nor yerznka",40.3133333,44.4047222
"am","noyakert",39.8166667,44.6669444
"am","noyemberyan",41.1725,44.9936111
"am","nshavan",40.0263889,44.5252778
"am","odzun",41.0538889,44.6113889
"am","oshakan",40.2705556,44.2691667
"am","paravakar",40.9805556,45.3991667
"am","pemzashen",40.5933333,43.94
"am","pokr mantash",40.65,44.05
"am","proshyan",40.2480556,44.415
"am","pshatavan",40.0405556,44.0675
"am","ptghni",40.2566667,44.585
"am","ranchpar",40.0252778,44.3702778
"am","rind",39.7597222,45.18
"am","samaghar",40.1852778,44.2422222
"am","saramech",40.7725,44.2191667
"am","saratak",40.67,43.8663889
"am","sarigyukh",41.0563889,45.1458333
"am","sarukhan",40.2891667,45.1341667
"am","sasunik",40.2472222,44.3380556
"am","sevan",40.555,44.9536111
"am","shaghat",39.5616667,45.9122222
"am","shahumyan",39.9308333,44.5783333
"am","shahumyan",40.7883333,44.5316667
"am","shatin",39.8333333,45.3016667
"am","shenavan",40.4861111,44.3825
"am","shenavan",40.05,43.9333333
"am","shinuhayr",39.4341667,46.3155556
"am","shirakamut",40.8605556,44.1527778
"am","shirak",40.8480556,43.9213889
"am","shnogh",41.1477778,44.8377778
"am","sisavan",39.9,44.6666667
"am","sisian",39.4627778,45.9730556
"am","sis",40.0586111,44.3863889
"am","solak",40.4636111,44.7086111
"am","sovetakan",40.1133333,44.0552778
"am","spandaryan",40.665,44.0188889
"am","spitak",40.7955556,44.2783333
"am","surenavan",39.75,44.8
"am","talin",40.3369444,43.8588889
"am","tandzut",40.0772222,44.0886111
"am","taronik",40.1330556,44.1991667
"am","tashir",41.1244444,44.2819444
"am","tazagyukh",40.1416667,45.1913889
"am","tegh",39.5547222,46.4758333
"am","tsaghkaber",40.7986111,44.1072222
"am","tsaghkadzor",40.5386111,44.7113889
"am","tsaghkahovit",40.6361111,44.2230556
"am","tsiatsan",40.1869444,44.2666667
"am","tsovagyugh",40.6330556,44.9522222
"am","tsovak",40.1819444,45.635
"am","tsovazard",40.4769444,45.0375
"am","tsovinar",40.1608333,45.4538889
"am","tumanyan",40.9633333,44.6516667
"am","urut",41.0711111,44.3969444
"am","ushi",40.3536111,44.3686111
"am","vagharshapat",40.1727778,44.2925
"am","vaghashen",40.1377778,45.3291667
"am","vahagni",40.9080556,44.6069444
"am","vahan",40.57,45.3955556
"am","vanadzor",40.8127778,44.4883333
"am","vardablur",40.95,44.4666667
"am","vardadzor",40.1916667,45.1875
"am","vardenik",40.135,45.4363889
"am","vardenis",40.1805556,45.7283333
"am","varser",40.5561111,44.9111111
"am","vedi",39.9105556,44.7277778
"am","verin artashat",40.0005556,44.585
"am","verin dvin",40.0252778,44.5908333
"am","verin getashen",40.1327778,45.2486111
"am","verishen",39.5358333,46.3119444
"am","vernashen",39.7938889,45.3633333
"am","voskehask",40.7383333,43.7758333
"am","voskehat",40.1413889,44.3291667
"am","voskevan",41.1191667,45.0652778
"am","voskevaz",40.2797222,44.295
"am","vostan",39.9588889,44.5591667
"am","yeghegnavan",39.8277778,44.6372222
"am","yeghegnut",40.0902778,44.1625
"am","yeghegnut",40.9041667,44.6325
"am","yeghvard",40.3216667,44.4813889
"am","yeraskhahun",40.0722222,44.2158333
"am","yerazgavors",40.7,43.75
"am","yerevan",40.1811111,44.5136111
"am","zangakatun",39.8094444,45.0511111
"am","zaritap",39.6372222,45.5086111
"am","zar",40.2611111,44.7361111
"am","zhdanov",40.1616667,44.0883333
"am","zorak",40.0925,44.3919444
"am","zoravan",40.3569444,44.5230556
"am","zovaber",40.5736111,44.7863889
"am","zovuni",40.5108333,44.4288889
"at","absam",47.3,11.5
"at","abtenau",47.55,13.35
"at","altach",47.35,9.65
"at","althofen",47.15,14.233333
"at","altmunster",47.9,13.75
"at","amstetten",48.116667,14.866667
"at","anif",47.75,13.066667
"at","ansfelden",48.2,14.283333
"at","arnoldstein",46.546111,13.71
"at","asten",48.216667,14.4
"at","axams",47.233333,11.3
"at","bad aussee",47.6,13.783333
"at","baden",48.016667,16.233333
"at","bad goisern",47.633333,13.616667
"at","bad hall",48.033333,14.2
"at","bad hofgastein",47.166667,13.1
"at","bad ischl",47.716667,13.616667
"at","bad sankt leonhard",46.962778,14.791667
"at","bad voslau",47.966667,16.2
"at","barnbach",46.983333,16.05
"at","bergheim",47.833333,13.033333
"at","berndorf",47.95,16.1
"at","bischofshofen",47.416667,13.216667
"at","bludenz",47.149722,9.816667
"at","braunau",48.266667,13.033333
"at","bregenz",47.5,9.766667
"at","bruck an der leitha",48.016667,16.766667
"at","bruck an der mur",47.416667,15.283333
"at","deutschlandsberg",46.815278,15.222222
"at","deutsch-wagram",48.299722,16.566667
"at","dornbirn",47.416667,9.733056
"at","ebbs",47.633333,12.216667
"at","ebensee",47.8,13.766667
"at","ebenthal",46.608056,14.364167
"at","eberndorf",46.591389,14.643611
"at","ebreichsdorf",47.95,16.4
"at","eisenerz",47.533333,14.883333
"at","eisenstadt",47.85,16.516667
"at","engerwitzdorf",48.35,14.45
"at","enns",48.2,14.466667
"at","feldbach",46.953056,15.888333
"at","feldkirchen an der donau",48.35,14.05
"at","feldkirchen",46.716667,14.1
"at","feldkirch",47.233056,9.6
"at","ferlach",46.526944,14.301944
"at","finkenstein",46.565556,13.865278
"at","fohnsdorf",47.2,14.683333
"at","frankenburg",48.066667,13.483333
"at","freistadt",48.5,14.5
"at","friesach",46.955278,14.405833
"at","frohnleiten",47.266667,15.316667
"at","fugen",47.35,11.85
"at","furstenfeld",47.05,16.083333
"at","gallneukirchen",48.35,14.416667
"at","ganserndorf",48.35,16.733333
"at","garsten",48.016667,14.4
"at","gleisdorf",47.1,15.716667
"at","gloggnitz",47.666667,15.933333
"at","gmunden",47.916667,13.8
"at","gmund",48.766667,14.983333
"at","gotzis",47.333056,9.633056
"at","gratkorn",47.133333,15.35
"at","graz",47.066667,15.45
"at","grieskirchen",48.233333,13.833333
"at","grodig",47.733333,13.033333
"at","guntramsdorf",48.033333,16.3
"at","haag",48.15,15.5
"at","hainburg",48.15,16.933333
"at","hallein",47.683333,13.1
"at","hall",47.6,14.45
"at","hard",47.483056,9.683056
"at","heidenreichstein",48.866667,15.116667
"at","hermagor",46.627222,13.367222
"at","herzogenburg",48.266667,15.683333
"at","himberg",48.083333,16.433333
"at","hochst",47.466667,9.633056
"at","hohenems",47.366667,9.683056
"at","hollabrunn",48.55,16.083333
"at","hopfgarten",47.45,12.166667
"at","horbranz",47.55,9.75
"at","horn",48.65,15.65
"at","horsching",48.233333,14.183333
"at","imst",47.233333,10.733333
"at","innsbruck",47.266667,11.4
"at","jenbach",47.4,11.783333
"at","jennersdorf",46.939167,16.146667
"at","judenburg",47.166667,14.666667
"at","kapfenberg",47.433333,15.3
"at","kindberg",47.5,15.45
"at","kirchbichl",47.516667,12.083333
"at","kitzbuhel",47.45,12.383333
"at","klagenfurt",46.624722,14.305278
"at","klosterneuburg",48.3,16.316667
"at","knittelfeld",47.216667,14.816667
"at","koflach",47.066667,15.083333
"at","korneuburg",48.35,16.333333
"at","kottingbrunn",47.95,16.216667
"at","krems",48.416667,15.6
"at","kremsmunster",48.05,14.133333
"at","krieglach",47.533333,15.55
"at","kuchl",47.616667,13.15
"at","kufstein",47.583333,12.166667
"at","laakirchen",47.966667,13.816667
"at","laa",48.716667,16.383333
"at","landeck",47.133333,10.566667
"at","langenlois",48.466667,15.666667
"at","langenzersdorf",48.3,16.35
"at","lauterach",47.483056,9.733056
"at","leibnitz",46.781667,15.541667
"at","lenzing",47.966667,13.616667
"at","leoben",47.383333,15.1
"at","leonding",48.266667,14.25
"at","lienz",46.831111,12.759722
"at","liezen",47.566667,14.233333
"at","linz",48.3,14.3
"at","lochau",47.533333,9.75
"at","lustenau",47.433056,9.65
"at","marchtrenk",48.183333,14.116667
"at","maria enzersdorf",48.1,16.283333
"at","matrei",47,12.533333
"at","mattersburg",47.733333,16.4
"at","melk",48.216667,15.316667
"at","micheldorf",47.85,14.133333
"at","mistelbach",48.57,16.576667
"at","mittelberg",47.2,9.65
"at","mittersill",47.266667,12.483333
"at","modling",48.083333,16.283333
"at","moosburg",46.6575,14.174722
"at","murzzuschlag",47.6,15.683333
"at","nenzing",47.183056,9.7
"at","neudorfl",47.783333,16.283333
"at","neulengbach",48.2,15.9
"at","neunkirchen",47.716667,16.083333
"at","neusiedl am see",47.933333,16.833333
"at","nuziders",47.166667,9.8
"at","oberndorf",48.25,13.333333
"at","oberwart",47.283333,16.2
"at","pasching",48.25,14.2
"at","paternion",46.714167,13.636111
"at","perchtoldsdorf",48.116667,16.266667
"at","perg",48.25,14.633333
"at","pinkafeld",47.366667,16.116667
"at","pottendorf",47.9,16.383333
"at","poysdorf",48.666667,16.633333
"at","pressbaum",48.183333,16.083333
"at","purgstall",48.05,15.133333
"at","purkersdorf",48.2,16.166667
"at","radstadt",47.383333,13.45
"at","rankweil",47.283056,9.65
"at","reichenau",47.7,15.833333
"at","retz",48.75,15.95
"at","reutte",47.483333,10.716667
"at","ried",48.216667,13.5
"at","rottenmann",47.516667,14.35
"at","rum",47.283333,11.45
"at","rust",47.8,16.666667
"at","saalfelden",47.416667,12.85
"at","salzburg",47.8,13.033333
"at","sankt andra",46.766111,14.823611
"at","sankt florian",48.166667,13.133333
"at","sankt georgen",47.933333,13.483333
"at","sankt jakob",46.547778,14.057222
"at","sankt johann im pongau",47.35,13.2
"at","sankt polten",48.2,15.633333
"at","sankt valentin",48.166667,14.516667
"at","sankt veit",46.768056,14.360278
"at","scharding",48.45,13.433333
"at","scharnstein",47.9,13.95
"at","schladming",47.383333,13.683333
"at","schrems",48.783333,15.066667
"at","schruns",47.066667,9.916667
"at","schwaz",47.333333,11.7
"at","schwechat",48.133333,16.466667
"at","seeboden",46.821944,13.495
"at","seekirchen",47.9,13.133333
"at","seewalchen",47.95,13.583333
"at","sieghartskirchen",48.25,16
"at","sierning",48.033333,14.3
"at","spittal",46.8,13.5
"at","steyregg",48.283333,14.366667
"at","steyr",48.05,14.416667
"at","stockerau",48.383333,16.216667
"at","strasshof",48.316667,16.666667
"at","tamsweg",47.133333,13.8
"at","telfs",47.3,11.066667
"at","ternitz",47.716667,16.033333
"at","thalgau",47.833333,13.25
"at","timelkam",48,13.6
"at","traiskirchen",48.016667,16.283333
"at","traismauer",48.35,15.733333
"at","traun",48.216667,14.233333
"at","trofaiach",47.416667,15
"at","tulln",48.333333,16.05
"at","velden am worthersee",46.616111,14.045833
"at","vienna",48.2,16.366667
"at","villach",46.610278,13.855833
"at","vocklabruck",48.016667,13.65
"at","vocklamarkt",48,13.483333
"at","voitsberg",47.033333,15.15
"at","volkermarkt",46.662222,14.634444
"at","vols",47.25,11.333333
"at","vomp",47.333333,11.683333
"at","vorchdorf",48,13.916667
"at","waidhofen",47.966667,14.766667
"at","wattens",47.283333,11.6
"at","weiz",47.216667,15.616667
"at","wels",48.166667,14.033333
"at","wernberg",46.616667,13.933333
"at","wiener neudorf",48.066667,16.316667
"at","wiener neustadt",47.8,16.25
"at","wilhelmsburg",48.1,15.6
"at","wolfsberg",46.840556,14.844167
"at","wolfurt",47.466667,9.75
"at","wolkersdorf",48.383333,16.516667
"at","worgl",47.483333,12.066667
"at","ybbs",48.166667,15.083333
"at","zell am see",47.316667,12.783333
"at","zeltweg",47.183333,14.75
"at","zirl",47.283333,11.233333
"at","zistersdorf",48.533333,16.75
"at","zwettl",48.616667,15.166667
"az","agdam",39.99096,46.927356
"az","agdas",40.65,47.476111
"az","agstafa",41.118889,45.453889
"az","agsu",40.569167,48.396476
"az","alunitdag",40.521667,46.080556
"az","aran",40.625278,46.975556
"az","artyom",40.472255,50.333041
"az","astara",38.455977,48.87498
"az","badamdar",40.339444,49.803889
"az","baku",40.395278,49.882222
"az","basqal",40.7552,48.391044
"az","buzovna",40.517888,50.113901
"az","ceyranbatan",40.540833,49.659722
"az","corat",40.5725,49.706389
"az","culfa",38.9558,45.6308
"az","gilazi",40.903896,49.335522
"az","gilazi",40.870977,49.342333
"az","goranboy",40.610278,46.789722
"az","goycay",40.653056,47.740556
"az","gurgan",40.397462,50.336733
"az","guzdak",40.374444,49.681944
"az","hadrut",39.520018,47.0318
"az","haftoni",38.763253,48.762231
"az","hasanabad",39.336672,49.214143
"az","horadiz",39.448771,47.335313
"az","hovsan",40.374444,50.085278
"az","imisli",39.871307,48.064094
"az","istisu",39.947532,45.962121
"az","kesla",40.397778,49.898611
"az","kijaba",38.532778,48.816667
"az","kirovskiy",40.433333,49.85
"az","korgoz",40.303056,49.62
"az","lerik",38.772633,48.412788
"az","lokbatan",40.323718,49.728038
"az","masalli",39.027781,48.670276
"az","mastaga",40.532778,50.003889
"az","mincivan",39.029348,46.718471
"az","mugan",40.095182,48.821136
"az","naftalan",40.506667,46.825
"az","nardaran",40.556111,50.005556
"az","neftcala",39.37417,49.247224
"az","ordubad",38.905954,46.023411
"az","pirsagi",40.564032,49.8913
"az","pushkino",39.458333,48.545
"az","puta",40.296667,49.660278
"az","qabaqcol",41.72,46.264722
"az","qala",40.44182,50.168121
"az","qaracala",39.813178,48.952303
"az","qaracuxur",40.396667,49.973611
"az","qarayeri",40.78862,46.306589
"az","qax",41.4225,46.924167
"az","qazanbulaq",40.618611,46.645278
"az","qazax",41.093333,45.366111
"az","qobu",40.404722,49.713056
"az","qobustan",40.08238,49.412048
"az","qovlar",40.942137,45.732171
"az","quba",41.362587,48.515186
"az","qusar",41.427284,48.42893
"az","quscu",40.555556,46.091944
"az","ramana",40.442222,49.980556
"az","sabirabad",40.009458,48.475154
"az","sabuncu",40.4425,49.948056
"az","sahbuz",39.407222,45.573889
"az","salyan",39.593615,48.980552
"az","samur",41.632544,48.430248
"az","saray",40.532222,49.716389
"az","sollar",41.639727,48.664408
"az","sonqar",40.322099,49.601085
"az","suraabad",40.819244,49.468745
"az","susa",39.758934,46.749187
"az","tovuz",40.992222,45.628889
"az","turkan",40.363889,50.215
"az","turyancay",40.7088,47.54326
"az","ucar",40.518333,47.654167
"az","vurgun",41.094229,45.471616
"az","xacmaz",41.463489,48.80605
"az","xanlar",40.586944,46.315833
"az","xocali",39.9,46.866667
"az","xocali",39.912973,46.790284
"az","xocasan",40.413484,49.772088
"az","xudat",41.630965,48.681
"az","yevlax",40.612732,47.142329
"az","zabrat",40.476104,49.941582
"az","zaqatala",41.633611,46.643333
"az","zig",40.343889,49.969167
"ba","banja luka",44.7758333,17.1855556
"ba","banovici",44.4041667,18.4475
"ba","barice",44.5405556,18.4811111
"ba","batkovici",44.8536111,19.1963889
"ba","bihac",44.8169444,15.8708333
"ba","bijela",43.6086111,17.9519444
"ba","bijeljina",44.7569444,19.2161111
"ba","bila",43.7825,16.9252778
"ba","bileca",42.8719444,18.4297222
"ba","blagaj",43.2575,17.8886111
"ba","blatnica",44.3530556,17.5894444
"ba","bosanska dubica",45.1766667,16.8094444
"ba","bosanska gradiska",45.1411111,17.25
"ba","bosanska kostajnica",45.2197222,16.5358333
"ba","bosanska krupa",44.8825,16.1513889
"ba","bosanski brod",45.1375,17.9897222
"ba","bosanski novi",45.0458333,16.3802778
"ba","bosanski samac",45.0591667,18.4669444
"ba","bosansko grahovo",44.1794444,16.3638889
"ba","bratunac",44.1875,19.3394444
"ba","brcko",44.8727778,18.8083333
"ba","breza",44.0161111,18.2588889
"ba","bronzani majdan",44.7869444,16.9311111
"ba","bugojno",44.0572222,17.4508333
"ba","busovaca",44.0975,17.8788889
"ba","buzim",45.0547222,16.0319444
"ba","cajnice",43.5575,19.0711111
"ba","capljina",43.1138889,17.7036111
"ba","careva cuprija",44.2658333,18.4291667
"ba","cazin",44.9669444,15.9430556
"ba","cecava",44.6866667,17.7705556
"ba","celinac",44.7227778,17.3277778
"ba","cim",43.3527778,17.7772222
"ba","citluk",43.2286111,17.7008333
"ba","coralici",44.9830556,15.9041667
"ba","crnici",43.1288889,17.8666667
"ba","derventa",44.9772222,17.9102778
"ba","divicani",44.3666667,17.3261111
"ba","doboj",44.7347222,18.0877778
"ba","dobrinje",44.0497222,18.1194444
"ba","dobrljin",45.1469444,16.5033333
"ba","donja dubica",45.075,18.4113889
"ba","donja mahala",45.0469444,18.6663889
"ba","donja medjidja",44.8025,18.4033333
"ba","donja orahovica",44.6530556,18.3702778
"ba","donje dubrave",44.4811111,18.6961111
"ba","donje vukovije",44.4636111,18.7538889
"ba","donji vakuf",44.1436111,17.4
"ba","dreznica",43.5288889,17.2819444
"ba","drinovci",43.355,17.3538889
"ba","dubravica",44.4419444,18.1180556
"ba","foca",43.505,18.7786111
"ba","fojnica",43.9625,17.8983333
"ba","gacko",43.1672222,18.5352778
"ba","glamoc",44.0458333,16.8486111
"ba","gnojnica",44.6205556,18.4466667
"ba","gorazde",43.6669444,18.9763889
"ba","gornja koprivna",45.0119444,15.9572222
"ba","gornja tuzla",44.5561111,18.7613889
"ba","gornje dubrave",44.4713889,18.7297222
"ba","gornje zivinice",44.4286111,18.6169444
"ba","gornji vakuf",43.9380556,17.5883333
"ba","gostovici",44.415,18.1583333
"ba","gracanica",44.7033333,18.3097222
"ba","gradacac",44.8808333,18.4269444
"ba","gromiljak",43.9666667,18.0530556
"ba","grude",43.3641667,17.4205556
"ba","hadzici",43.8222222,18.2066667
"ba","hotonj",43.8947222,18.3727778
"ba","ilici",43.3472222,17.7680556
"ba","ilijas",43.9508333,18.2708333
"ba","izacic",44.875,15.7819444
"ba","jablanica",43.6602778,17.7616667
"ba","jajce",44.3422222,17.2655556
"ba","janja",44.6652778,19.2477778
"ba","jelah",44.6541667,17.9580556
"ba","jezerski",44.9808333,16.0841667
"ba","kacuni",44.065,17.9386111
"ba","kakanj",44.1272222,18.1180556
"ba","karadaglije",44.5716667,18.0183333
"ba","kiseljak",44.4888889,18.5688889
"ba","kladanj",44.2263889,18.6913889
"ba","kljuc",44.535,16.7722222
"ba","knezica",45.1027778,16.6775
"ba","kobilja glava",43.8819444,18.3891667
"ba","kocerin",43.3897222,17.485
"ba","konjic",43.6519444,17.9613889
"ba","koran",43.8102778,18.5688889
"ba","laktasi",44.9080556,17.3008333
"ba","lamovita",44.9255556,16.9072222
"ba","lijesnica",44.4941667,18.0741667
"ba","listica",43.3833333,17.5927778
"ba","livno",43.8269444,17.0077778
"ba","ljubinje",42.9508333,18.0886111
"ba","ljubuski",43.1969444,17.545
"ba","lokvine",44.2047222,17.8563889
"ba","lopare",44.6377778,18.8427778
"ba","lukavac",44.5419444,18.5258333
"ba","lukavica",44.7627778,18.1688889
"ba","maglajani",44.9486111,17.3494444
"ba","maglaj",44.5491667,18.0966667
"ba","mala kladusa",45.1341667,15.8586111
"ba","malesici",44.7380556,18.2738889
"ba","maricka",44.8588889,16.8522222
"ba","maslovare",44.5655556,17.5336111
"ba","milici",44.1316667,19.0316667
"ba","mionica",44.8672222,18.4630556
"ba","modrica",44.9544444,18.3036111
"ba","mostar",43.3433333,17.8080556
"ba","mostre",44.025,18.1413889
"ba","mramor",44.5916667,18.5644444
"ba","mrkonjic grad",44.4158333,17.0861111
"ba","nevesinje",43.2586111,18.1133333
"ba","novi seher",44.5102778,18.0258333
"ba","novi travnik",44.1711111,17.6575
"ba","obudovac",44.965,18.6122222
"ba","odzak",45.0111111,18.3266667
"ba","olovo",44.13,18.5827778
"ba","omarska",44.89,16.8991667
"ba","orasac",44.6288889,16.0711111
"ba","orasje",45.0355556,18.6933333
"ba","orguz",43.7738889,16.8638889
"ba","ostra luka",45,18.5883333
"ba","ostrozac",44.9086111,15.9402778
"ba","otoka",44.96,16.1791667
"ba","pajic polje",43.9758333,17.5275
"ba","pale",43.8161111,18.5694444
"ba","pazaric",43.7886111,18.1608333
"ba","pecigrad",45.0544444,15.8969444
"ba","peci",44.6272222,16.7861111
"ba","petkovci",44.4530556,19.0761111
"ba","piskavica",44.8341667,16.9888889
"ba","pjanici",44.9836111,15.8227778
"ba","podbrdo",44.4408333,17.0138889
"ba","podhum",43.7230556,17.0011111
"ba","podzvizd",45.1741667,15.8736111
"ba","polje",43.8805556,18.0744444
"ba","posusje",43.4722222,17.3266667
"ba","potoci",43.4086111,17.8786111
"ba","pribinic",44.6105556,17.6905556
"ba","priboj",44.6027778,18.9313889
"ba","prijedor",44.9813889,16.7130556
"ba","prnjavor",44.8702778,17.6627778
"ba","prozor",43.8222222,17.6091667
"ba","puracic",44.5469444,18.4766667
"ba","radisici",43.2219444,17.5430556
"ba","rodoc",43.3088889,17.8069444
"ba","rogatica",43.8008333,19.0025
"ba","rumboci",43.8322222,17.5011111
"ba","sanica",44.6141667,16.6411111
"ba","sanski most",44.7652778,16.6655556
"ba","sarajevo",43.85,18.3833333
"ba","sekovici",44.2986111,18.8527778
"ba","serici",44.4652778,18.5580556
"ba","sipovo",44.2813889,17.0838889
"ba","skender vakuf",44.4908333,17.3775
"ba","skokovi",45.0313889,15.9144444
"ba","sladna",44.7294444,18.4241667
"ba","sokolac",43.9397222,18.8016667
"ba","solina",44.5602778,18.6947222
"ba","srbac",45.0977778,17.525
"ba","srebrenica",44.1063889,19.2969444
"ba","srebrenik",44.7077778,18.4880556
"ba","stanari",44.7472222,17.8294444
"ba","stijena",44.9352778,16.0172222
"ba","stolac",43.0844444,17.9575
"ba","stupari",44.3147222,18.6841667
"ba","sturlic",45.0638889,15.7780556
"ba","sumatac",45.0988889,15.8575
"ba","svodna",45.0372222,16.5383333
"ba","svojat",44.3947222,18.7391667
"ba","tesanjka",44.6730556,18.0127778
"ba","tesanj",44.6116667,17.9872222
"ba","teslic",44.6063889,17.8597222
"ba","todorovo",45.0883333,15.9308333
"ba","tojsici",44.4813889,18.7869444
"ba","tolisa",45.0430556,18.6427778
"ba","tomislavgrad",43.7180556,17.2266667
"ba","travnik",44.2266667,17.6705556
"ba","trebinje",42.7119444,18.3441667
"ba","trn",44.8597222,17.2363889
"ba","trzacka rastela",44.9733333,15.7902778
"ba","turbe",44.2436111,17.5713889
"ba","tuzla",44.5427778,18.6694444
"ba","ugljevik",44.6636111,19.0202778
"ba","ustikolina",43.5836111,18.79
"ba","vares",44.1644444,18.3283333
"ba","varoska rijeka",45.0847222,16.0141667
"ba","velagici",44.5572222,16.7316667
"ba","velika kladusa",45.1894444,15.8116667
"ba","velika obarska",44.8052778,19.1641667
"ba","vidosi",43.7713889,17.0283333
"ba","visegrad",43.7847222,19.2991667
"ba","visoko",43.9888889,18.1780556
"ba","vitez",44.1544444,17.7902778
"ba","vitina",43.2375,17.4838889
"ba","vlasenica",44.1819444,18.9405556
"ba","vogosca",43.9019444,18.3480556
"ba","voljevac",43.8786111,17.6591667
"ba","vozuca",44.3613889,18.3577778
"ba","vrnograc",45.1636111,15.9536111
"ba","zabrisce",43.7925,16.9422222
"ba","zavidovici",44.4458333,18.1497222
"ba","zboriste",45.1458333,16.0177778
"ba","zeljezno polje",44.4083333,17.9319444
"ba","zenica",44.2013889,17.9063889
"ba","zepce",44.4266667,18.0377778
"ba","zivinice",44.4494444,18.6497222
"ba","zivinice",44.5472222,17.375
"ba","zvornik",44.3869444,19.1013889
"be","aalst",50.933333,4.033333
"be","aalter",51.083333,3.45
"be","aarschot",50.983333,4.833333
"be","aartselaar",51.133333,4.383333
"be","alken",50.866667,5.3
"be","alveringem",51.016667,2.716667
"be","amay",50.55,5.316667
"be","amel",50.35,6.15
"be","andenne",50.483333,5.1
"be","anderlues",50.4,4.266667
"be","anhee",50.316667,4.883333
"be","ans",50.65,5.533333
"be","anthisnes",50.483333,5.516667
"be","antoing",50.566667,3.45
"be","antwerp",51.216667,4.416667
"be","anzegem",50.833333,3.466667
"be","ardooie",50.983333,3.2
"be","arendonk",51.316667,5.083333
"be","arlon",49.683333,5.816667
"be","as",51.016667,5.583333
"be","asse",50.916667,4.2
"be","assenede",51.233333,3.75
"be","assesse",50.366667,5.016667
"be","ath",50.633333,3.783333
"be","attert",49.766667,5.783333
"be","aubange",49.583333,5.8
"be","aubel",50.7,5.85
"be","avelgem",50.766667,3.433333
"be","awans",50.666667,5.466667
"be","aywaille",50.466667,5.666667
"be","baarle-hertog",51.45,4.933333
"be","baelen",50.633333,5.966667
"be","balen",51.166667,5.15
"be","bassenge",50.766667,5.6
"be","bastogne",50,5.716667
"be","beaumont",50.233333,4.233333
"be","beauraing",50.116667,4.966667
"be","beauvechain",50.783333,4.766667
"be","beernem",51.15,3.333333
"be","beerse",51.316667,4.866667
"be","beersel",50.766667,4.3
"be","begijnendijk",51.016667,4.766667
"be","bekkevoort",50.95,4.966667
"be","beloeil",50.55,3.716667
"be","beringen",51.05,5.216667
"be","berlaar",51.116667,4.65
"be","berlare",51.033333,4
"be","berloz",50.7,5.216667
"be","bernissart",50.466667,3.633333
"be","bertem",50.866667,4.633333
"be","bertogne",50.083333,5.666667
"be","bertrix",49.85,5.25
"be","bever",50.916667,4.316667
"be","beveren",51.216667,4.25
"be","beyne-heusay",50.616667,5.65
"be","bierbeek",50.833333,4.766667
"be","bievre",49.933333,5.016667
"be","bilzen",50.866667,5.516667
"be","binche",50.4,4.166667
"be","blankenberge",51.316667,3.133333
"be","blegny",50.666667,5.733333
"be","bocholt",51.166667,5.583333
"be","boechout",51.166667,4.5
"be","bonheiden",51.033333,4.533333
"be","boom",51.083333,4.366667
"be","boortmeerbeek",50.983333,4.566667
"be","borgloon",50.8,5.333333
"be","bornem",51.1,4.233333
"be","borsbeek",51.2,4.483333
"be","bouillon",49.8,5.066667
"be","boussu",50.433333,3.8
"be","boutersem",50.85,4.833333
"be","braine-le-chateau",50.683333,4.266667
"be","braine-le-comte",50.6,4.133333
"be","braives",50.633333,5.15
"be","brasschaat",51.283333,4.45
"be","brecht",51.35,4.633333
"be","bredene",51.233333,2.966667
"be","bree",51.133333,5.6
"be","brugelette",50.6,3.85
"be","brugge",51.216667,3.233333
"be","brunehaut",50.5,4.416667
"be","brussels",50.833333,4.333333
"be","buggenhout",51.016667,4.2
"be","bullingen",50.416667,6.266667
"be","burdinne",50.583333,5.066667
"be","butgenbach",50.433333,6.2
"be","celles",50.716667,3.45
"be","cerfontaine",50.166667,4.416667
"be","chapelle-lez-herlaimont",50.466667,4.283333
"be","charleroi",50.416667,4.433333
"be","chastre",50.6,4.633333
"be","chatelet",50.4,4.516667
"be","chaudfontaine",50.583333,5.633333
"be","chaumont-gistoux",50.683333,4.733333
"be","chievres",50.583333,3.8
"be","chimay",50.05,4.316667
"be","chiny",49.733333,5.333333
"be","ciney",50.3,5.1
"be","clavier",50.416667,5.366667
"be","colfontaine",50.383333,3.866667
"be","comblain-au-pont",50.466667,5.583333
"be","courcelles",50.466667,4.366667
"be","court-saint-etienne",50.65,4.566667
"be","couvin",50.05,4.483333
"be","crisnee",50.716667,5.4
"be","dalhem",50.716667,5.716667
"be","damme",51.25,3.283333
"be","daverdisse",50.016667,5.116667
"be","deerlijk",50.85,3.35
"be","de haan",51.266667,3.033333
"be","deinze",50.983333,3.533333
"be","denderleeuw",50.883333,4.066667
"be","dendermonde",51.033333,4.116667
"be","dentergem",50.966667,3.416667
"be","de panne",51.1,2.583333
"be","de pinte",51,3.65
"be","dessel",51.233333,5.116667
"be","destelbergen",51.05,3.8
"be","diepenbeek",50.9,5.4
"be","diest",50.983333,5.05
"be","diksmuide",51.033333,2.866667
"be","dilbeek",50.85,4.266667
"be","dinant",50.266667,4.916667
"be","dison",50.616667,5.85
"be","doische",50.133333,4.75
"be","donceel",50.65,5.316667
"be","dour",50.4,3.783333
"be","drogenbos",50.783333,4.316667
"be","duffel",51.1,4.516667
"be","durbuy",50.35,5.466667
"be","edegem",51.15,4.45
"be","eeklo",51.183333,3.566667
"be","eghezee",50.6,4.9
"be","ellezelles",50.733333,3.683333
"be","enghien",50.7,4.033333
"be","engis",50.583333,5.416667
"be","erezee",50.3,5.55
"be","erquelinnes",50.3,4.116667
"be","esneux",50.533333,5.566667
"be","essen",51.466667,4.466667
"be","estaimpuis",50.7,3.25
"be","etalle",49.683333,5.6
"be","eupen",50.633333,6.033333
"be","evergem",51.116667,3.7
"be","faimes",50.666667,5.266667
"be","farciennes",50.433333,4.55
"be","fauvillers",49.85,5.666667
"be","ferrieres",50.4,5.6
"be","fexhe-le-haut-clocher",50.666667,5.4
"be","fleron",50.616667,5.683333
"be","fleurus",50.483333,4.533333
"be","flobecq",50.733333,3.733333
"be","floreffe",50.433333,4.783333
"be","florennes",50.25,4.616667
"be","florenville",49.7,5.3
"be","frameries",50.4,3.9
"be","galmaarden",50.75,3.966667
"be","gavere",50.933333,3.666667
"be","gedinne",49.983333,4.933333
"be","geel",51.166667,5
"be","geer",50.666667,5.166667
"be","geetbets",50.883333,5.116667
"be","gembloux",50.566667,4.683333
"be","genappe",50.6,4.45
"be","genk",50.966667,5.5
"be","gent",51.05,3.716667
"be","geraardsbergen",50.766667,3.866667
"be","gerpinnes",50.333333,4.516667
"be","gesves",50.4,5.066667
"be","gingelom",50.75,5.116667
"be","gistel",51.166667,2.95
"be","glabbeek",50.866667,4.95
"be","gooik",50.8,4.116667
"be","gouvy",50.185,5.941111
"be","grez-doiceau",50.733333,4.7
"be","grimbergen",50.933333,4.383333
"be","grobbendonk",51.2,4.716667
"be","haacht",50.983333,4.633333
"be","haaltert",50.9,4
"be","habay",49.733333,5.616667
"be","halen",50.95,5.1
"be","halle",50.733333,4.233333
"be","hamme",51.1,4.133333
"be","hamoir",50.433333,5.533333
"be","hamois",50.333333,5.133333
"be","hannut",50.666667,5.083333
"be","harelbeke",50.85,3.3
"be","hasselt",50.933333,5.333333
"be","hastiere",50.216667,4.833333
"be","havelange",50.383333,5.233333
"be","heers",50.75,5.283333
"be","heist-op-den-berg",51.083333,4.716667
"be","hemiksem",51.15,4.35
"be","hensies",50.433333,3.666667
"be","herbeumont",49.783333,5.233333
"be","herentals",51.183333,4.833333
"be","herent",50.9,4.666667
"be","herenthout",51.15,4.766667
"be","herk-de-stad",50.933333,5.166667
"be","herne",50.716667,4.033333
"be","heron",50.55,5.083333
"be","herselt",51.05,4.883333
"be","herstal",50.666667,5.633333
"be","herstappe",50.733333,5.416667
"be","herve",50.633333,5.8
"be","herzele",50.883333,3.883333
"be","hoegaarden",50.783333,4.9
"be","hoeilaart",50.766667,4.466667
"be","hoeselt",50.85,5.483333
"be","holsbeek",50.916667,4.75
"be","hooglede",50.983333,3.083333
"be","hoogstraten",51.4,4.766667
"be","hotton",50.266667,5.45
"be","houffalize",50.133333,5.783333
"be","houthulst",50.983333,2.95
"be","houyet",50.183333,5.016667
"be","hove",51.15,4.466667
"be","huldenberg",50.783333,4.583333
"be","hulshout",51.083333,4.783333
"be","huy",50.516667,5.233333
"be","ichtegem",51.1,3
"be","ieper",50.85,2.883333
"be","incourt",50.7,4.783333
"be","ingelmunster",50.916667,3.25
"be","ittre",50.65,4.266667
"be","izegem",50.916667,3.2
"be","jabbeke",51.183333,3.083333
"be","jalhay",50.566667,5.966667
"be","jodoigne",50.716667,4.866667
"be","juprelle",50.716667,5.533333
"be","jurbise",50.533333,3.933333
"be","kalmthout",51.383333,4.466667
"be","kampenhout",50.95,4.55
"be","kapellen",51.316667,4.433333
"be","kapelle-op-den-bos",51.016667,4.366667
"be","kaprijke",51.216667,3.6
"be","kasterlee",51.25,4.95
"be","keerbergen",51,4.616667
"be","kinrooi",51.15,5.75
"be","knesselare",51.133333,3.416667
"be","knokke-heist",51.35,3.266667
"be","koekelare",51.083333,2.966667
"be","koksijde",51.1,2.65
"be","kontich",51.133333,4.45
"be","kortemark",51.033333,3.033333
"be","kortenaken",50.916667,5.066667
"be","kortenberg",50.883333,4.533333
"be","kortessem",50.866667,5.366667
"be","kortrijk",50.833333,3.266667
"be","kraainem",50.866667,4.466667
"be","kruibeke",51.166667,4.316667
"be","kruishoutem",50.9,3.516667
"be","kuurne",50.85,3.283333
"be","laarne",51.033333,3.85
"be","la bruyere",50.283333,4.583333
"be","la hulpe",50.733333,4.483333
"be","la louviere",50.466667,4.183333
"be","lanaken",50.883333,5.65
"be","landen",50.75,5.083333
"be","la roche-en-ardenne",50.183333,5.583333
"be","lebbeke",51,4.133333
"be","ledegem",50.85,3.116667
"be","lede",50.966667,3.983333
"be","leglise",49.8,5.533333
"be","lendelede",50.883333,3.233333
"be","lennik",50.8,4.15
"be","lens",50.55,3.9
"be","leopoldsburg",51.116667,5.25
"be","lessines",50.716667,3.833333
"be","leuven",50.883333,4.7
"be","libin",49.983333,5.25
"be","lichtervelde",51.033333,3.15
"be","liedekerke",50.866667,4.083333
"be","liege",50.633333,5.566667
"be","lierneux",50.283333,5.8
"be","lille",51.233333,4.833333
"be","limbourg",50.616667,5.933333
"be","lincent",50.716667,5.033333
"be","linkebeek",50.766667,4.333333
"be","lint",51.133333,4.5
"be","lobbes",50.35,4.25
"be","lochristi",51.1,3.833333
"be","lokeren",51.1,3.983333
"be","lommel",51.233333,5.3
"be","londerzeel",51,4.3
"be","lontzen",50.683333,6
"be","lovendegem",51.1,3.6
"be","lubbeek",50.883333,4.833333
"be","lummen",50.983333,5.2
"be","maaseik",51.1,5.8
"be","maasmechelen",50.816667,5.666667
"be","machelen",50.916667,4.433333
"be","maldegem",51.216667,3.45
"be","malmedy",50.416667,6.033333
"be","manage",50.5,4.216667
"be","manhay",50.3,5.666667
"be","marche-en-famenne",50.2,5.333333
"be","marchin",50.466667,5.233333
"be","martelange",49.833333,5.733333
"be","mechelen",51.033333,4.466667
"be","meerhout",51.133333,5.083333
"be","meise",50.933333,4.333333
"be","meix-devant-virton",49.6,5.483333
"be","melle",51,3.8
"be","menen",50.8,3.116667
"be","merbes-le-chateau",50.316667,4.15
"be","merchtem",50.966667,4.233333
"be","merelbeke",51,3.75
"be","merksplas",51.366667,4.866667
"be","mesen",50.766667,2.9
"be","messancy",49.6,5.816667
"be","mettet",50.316667,4.666667
"be","meulebeke",50.95,3.283333
"be","middelkerke",51.183333,2.816667
"be","modave",50.45,5.3
"be","moerbeke",51.166667,3.933333
"be","mol",51.183333,5.1
"be","momignies",50.033333,4.166667
"be","mons",50.45,3.933333
"be","mont-saint-guibert",50.633333,4.616667
"be","moorslede",50.883333,3.066667
"be","morlanwelz",50.45,4.233333
"be","mortsel",51.166667,4.466667
"be","mouscron",50.733333,3.216667
"be","musson",49.566667,5.7
"be","namur",50.466667,4.866667
"be","nandrin",50.5,5.416667
"be","nassogne",50.133333,5.35
"be","nazareth",50.966667,3.6
"be","neerpelt",51.216667,5.416667
"be","neufchateau",49.833333,5.433333
"be","nevele",51.033333,3.55
"be","niel",51.116667,4.333333
"be","nieuwerkerken",50.866667,5.183333
"be","nieuwpoort",51.133333,2.75
"be","nijlen",51.166667,4.65
"be","ninove",50.833333,4.016667
"be","nivelles",50.6,4.333333
"be","ohey",50.433333,5.133333
"be","olen",51.15,4.85
"be","olne",50.583333,5.75
"be","onhaye",50.25,4.833333
"be","oosterzele",50.95,3.8
"be","oostkamp",51.15,3.233333
"be","oostrozebeke",50.916667,3.333333
"be","opglabbeek",51.05,5.583333
"be","opwijk",50.966667,4.183333
"be","oreye",50.733333,5.366667
"be","ostend",51.216667,2.916667
"be","oudenaarde",50.85,3.6
"be","oudenburg",51.183333,3
"be","oud-heverlee",50.833333,4.666667
"be","oud-turnhout",51.316667,4.983333
"be","ouffet",50.433333,5.466667
"be","oupeye",50.7,5.65
"be","overijse",50.766667,4.533333
"be","overpelt",51.216667,5.416667
"be","paliseul",49.9,5.133333
"be","pecq",50.683333,3.333333
"be","peer",51.133333,5.466667
"be","pepingen",50.75,4.15
"be","pepinster",50.566667,5.816667
"be","peruwelz",50.516667,3.583333
"be","perwez",50.616667,4.816667
"be","philippeville",50.2,4.533333
"be","pittem",51,3.266667
"be","plombieres",50.733333,5.95
"be","pont-a-celles",50.5,4.35
"be","poperinge",50.85,2.716667
"be","profondeville",50.383333,4.866667
"be","putte",51.066667,4.633333
"be","puurs",51.083333,4.283333
"be","quaregnon",50.433333,3.85
"be","quievrain",50.4,3.683333
"be","raeren",50.683333,6.116667
"be","ranst",51.2,4.55
"be","ravels",51.366667,5
"be","remicourt",50.683333,5.333333
"be","rendeux",50.233333,5.5
"be","retie",51.266667,5.066667
"be","riemst",50.8,5.6
"be","rijkevorsel",51.35,4.766667
"be","rixensart",50.716667,4.533333
"be","rochefort",50.166667,5.216667
"be","roeselare",50.95,3.133333
"be","ronse",50.75,3.6
"be","rotselaar",50.95,4.716667
"be","rouvroy",49.533333,5.5
"be","ruiselede",51.05,3.4
"be","rumes",50.55,3.3
"be","rumst",51.083333,4.416667
"be","sainte-ode",50.083333,5.533333
"be","saint-ghislain",50.45,3.816667
"be","saint-hubert",50.016667,5.383333
"be","saint-leger",49.616667,5.65
"be","saint-nicolas",50.633333,5.533333
"be","schelle",51.133333,4.333333
"be","schilde",51.233333,4.566667
"be","schoten",51.25,4.5
"be","seneffe",50.516667,4.25
"be","seraing",50.6,5.483333
"be","silly",50.65,3.916667
"be","sint-amands",51.05,4.2
"be","sint-genesius-rode",50.75,4.35
"be","sint-gillis-waas",51.216667,4.133333
"be","sint-katelijne-waver",51.066667,4.533333
"be","sint-laureins",51.25,3.516667
"be","sint-lievens-houtem",50.916667,3.85
"be","sint-martens-latem",51.016667,3.633333
"be","sint-niklaas",51.166667,4.133333
"be","sint-pieters-leeuw",50.783333,4.233333
"be","sint-truiden",50.8,5.2
"be","soignies",50.583333,4.066667
"be","sombreffe",50.516667,4.6
"be","somme-leuze",50.333333,5.366667
"be","soumagne",50.616667,5.75
"be","spa",50.5,5.866667
"be","sprimont",50.5,5.666667
"be","stabroek",51.333333,4.366667
"be","staden",50.983333,3.016667
"be","stavelot",50.383333,5.933333
"be","steenokkerzeel",50.916667,4.516667
"be","stekene",51.2,4.033333
"be","stoumont",50.416667,5.8
"be","tellin",50.083333,5.216667
"be","temse",51.133333,4.216667
"be","tenneville",50.1,5.533333
"be","ternat",50.866667,4.183333
"be","tervuren",50.816667,4.516667
"be","tessenderlo",51.066667,5.083333
"be","theux",50.533333,5.816667
"be","thuin",50.333333,4.283333
"be","tielt",51,3.316667
"be","tienen",50.8,4.95
"be","tinlot",50.483333,5.366667
"be","tintigny",49.683333,5.516667
"be","tongeren",50.783333,5.466667
"be","torhout",51.066667,3.1
"be","tournai",50.6,3.383333
"be","tremelo",50.983333,4.7
"be","trooz",50.566667,5.683333
"be","tubize",50.683333,4.2
"be","turnhout",51.316667,4.95
"be","vaux-sur-sure",49.916667,5.583333
"be","verlaine",50.6,5.316667
"be","verviers",50.583333,5.866667
"be","veurne",51.066667,2.666667
"be","vielsalm",50.284722,5.918611
"be","villers-la-ville",50.583333,4.533333
"be","villers-le-bouillet",50.583333,5.266667
"be","vilvoorde",50.933333,4.433333
"be","virton",49.566667,5.533333
"be","vise",50.733333,5.7
"be","vorselaar",51.2,4.766667
"be","vosselaar",51.316667,4.883333
"be","waarschoot",51.15,3.6
"be","waasmunster",51.1,4.083333
"be","wachtebeke",51.166667,3.866667
"be","waimes",50.416667,6.116667
"be","walcourt",50.25,4.416667
"be","walhain",50.616667,4.7
"be","wanze",50.533333,5.216667
"be","waregem",50.883333,3.416667
"be","waremme",50.683333,5.25
"be","wasseiges",50.616667,5
"be","waterloo",50.716667,4.383333
"be","wavre",50.716667,4.616667
"be","welkenraedt",50.65,5.966667
"be","wellen",50.85,5.316667
"be","wellin",50.083333,5.116667
"be","wemmel",50.916667,4.3
"be","wervik",50.783333,3.033333
"be","westerlo",51.083333,4.916667
"be","wetteren",51,3.883333
"be","wevelgem",50.8,3.166667
"be","wezembeek-oppem",50.85,4.483333
"be","wichelen",51,3.983333
"be","wielsbeke",50.9,3.366667
"be","wijnegem",51.233333,4.533333
"be","willebroek",51.066667,4.366667
"be","wingene",51.066667,3.266667
"be","wommelgem",51.2,4.516667
"be","wuustwezel",51.383333,4.6
"be","yvoir",50.333333,4.883333
"be","zandhoven",51.216667,4.65
"be","zaventem",50.883333,4.466667
"be","zedelgem",51.15,3.133333
"be","zele",51.066667,4.033333
"be","zelzate",51.2,3.816667
"be","zemst",50.983333,4.466667
"be","zingem",50.9,3.65
"be","zoersel",51.266667,4.7
"be","zomergem",51.116667,3.55
"be","zonhoven",50.983333,5.35
"be","zonnebeke",50.866667,2.983333
"be","zottegem",50.866667,3.8
"be","zoutleeuw",50.833333,5.1
"be","zuienkerke",51.266667,3.166667
"be","zulte",50.916667,3.433333
"be","zutendaal",50.933333,5.566667
"be","zwevegem",50.8,3.333333
"be","zwijndrecht",51.216667,4.333333
"bg","ahtopol",42.1,27.95
"bg","ajtos",42.7,27.25
"bg","alfatar",43.95,27.2833333
"bg","antonovo",43.15,26.1666667
"bg","ardino",41.5833333,25.1333333
"bg","asenovgrad",42.0166667,24.8666667
"bg","balgarovo",42.6166667,27.3
"bg","bankja",42.7,23.1333333
"bg","bansko",41.8394444,23.5
"bg","batak",41.95,24.2166667
"bg","batanovci",42.5997222,22.9505556
"bg","belene",43.65,25.1166667
"bg","belica",41.9569444,23.5725
"bg","belogradcik",43.6272222,22.6836111
"bg","beloslav",43.1833333,27.7
"bg","belovo",42.2166667,24.0166667
"bg","berkovica",43.2361111,23.1258333
"bg","bjala",43.45,25.7333333
"bg","bjala",42.8833333,27.8833333
"bg","blagoevgrad",42.0166667,23.1
"bg","bobosevo",42.1597222,23.0163889
"bg","bobovdol",42.3697222,23.0172222
"bg","boljarovo",42.15,26.8166667
"bg","borovo",43.5,25.8
"bg","botevgrad",42.9,23.7833333
"bg","bracigovo",42.0166667,24.3666667
"bg","bregovo",44.1516667,22.6425
"bg","breznik",42.7413889,22.8980556
"bg","brezovo",42.35,25.0833333
"bg","buhovo",42.7666667,23.5666667
"bg","burgas",42.5,27.4666667
"bg","carevo",42.1666667,27.85
"bg","cepelare",41.7333333,24.6833333
"bg","cirpan",42.2,25.3333333
"bg","dalgopol",43.05,27.35
"bg","debelec",43.0333333,25.6166667
"bg","devin",41.7333333,24.4
"bg","dimitrovgrad",42.05,25.6
"bg","dimovo",43.7416667,22.7269444
"bg","dobric",43.5666667,27.8333333
"bg","dolna banja",42.3,23.7666667
"bg","dolna mitropolija",43.4666667,24.5333333
"bg","dolni dabnik",43.4,24.4333333
"bg","dospat",41.65,24.1666667
"bg","dragoman",42.9188889,22.9316667
"bg","drjanovo",42.9827778,25.4922222
"bg","dulovo",43.8166667,27.15
"bg","dupnica",42.2666667,23.1166667
"bg","dve mogili",43.6,25.8666667
"bg","elena",42.9333333,25.8833333
"bg","elhovo",42.1666667,26.5666667
"bg","elin pelin",42.6666667,23.6
"bg","etropole",42.8333333,24
"bg","gabrovo",42.8747222,25.3341667
"bg","galabovo",42.1333333,25.85
"bg","godec",43.015,23.0441667
"bg","gramada",43.8344444,22.6586111
"bg","guljanci",43.6333333,24.7
"bg","gurkovo",42.6666667,25.7333333
"bg","gurkovo",42.6666667,25.8
"bg","harmanli",41.9333333,25.9
"bg","haskovo",41.9402778,25.5694444
"bg","ihtiman",42.4333333,23.8166667
"bg","iskar",43.3833333,27.4833333
"bg","isperih",43.7166667,26.8333333
"bg","ivajlovgrad",41.5333333,26.1333333
"bg","jablanica",43.0313889,24.1127778
"bg","jakoruda",42.0252778,23.6841667
"bg","jambol",42.4833333,26.5
"bg","kalofer",42.6166667,24.9833333
"bg","kameno",42.5666667,27.3
"bg","kaolinovo",43.6166667,27.1166667
"bg","karlovo",42.6333333,24.8
"bg","karnobat",42.65,26.9833333
"bg","kaspican",43.3,27.1833333
"bg","kavarna",43.4333333,28.3333333
"bg","kazanlak",42.6166667,25.4
"bg","kermen",42.5,26.25
"bg","kilifarevo",42.9833333,25.6333333
"bg","kjustendil",42.2838889,22.6911111
"bg","klisura",42.7,24.45
"bg","kneza",43.5,24.0833333
"bg","kocerinovo",42.0833333,23.0666667
"bg","kojnare",43.35,24.1333333
"bg","koprivstica",42.6333333,24.35
"bg","kostenec",42.2666667,23.8166667
"bg","kostinbrod",42.8166667,23.2166667
"bg","kotel",42.8833333,26.45
"bg","kozloduj",43.7833333,23.7333333
"bg","kresna",41.7333333,23.15
"bg","kresna",41.8,23.1833333
"bg","kricim",42.05,24.4666667
"bg","krivodol",43.3744444,23.4844444
"bg","krumovgrad",41.4666667,25.65
"bg","kubrat",43.8,26.5
"bg","kula",43.8877778,22.5213889
"bg","laki",41.85,24.8166667
"bg","letnica",43.3116667,25.0733333
"bg","levski",43.3666667,25.1333333
"bg","ljaskovec",43.1111111,25.7283333
"bg","ljubimec",41.8333333,26.0833333
"bg","lom",43.8138889,23.2361111
"bg","lovec",43.1333333,24.7166667
"bg","loznica",43.9666667,27.9166667
"bg","lukovit",43.2,24.1666667
"bg","madan",41.5,24.95
"bg","magliz",42.6,25.55
"bg","malko tarnovo",41.9833333,27.5333333
"bg","melnik",41.5166667,23.4
"bg","mericleri",42.1333333,25.5
"bg","mezdra",43.15,23.7
"bg","momcilgrad",41.5333333,25.4166667
"bg","montana",43.4125,23.225
"bg","nedelino",41.45,25.0833333
"bg","nesebar",42.65,27.7333333
"bg","nikolaevo",43.3166667,25.9833333
"bg","nikopol",43.7,24.9
"bg","nova zagora",42.4833333,26.0166667
"bg","novi iskar",42.8,23.35
"bg","novi pazar",43.35,27.2
"bg","obzor",42.8166667,27.8833333
"bg","omurtag",43.1,26.4166667
"bg","opaka",43.45,26.1666667
"bg","orjahovo",43.7333333,23.9666667
"bg","panagjuriste",42.5,24.1833333
"bg","pavlikeni",43.2427778,25.3219444
"bg","pazardzik",42.2,24.3333333
"bg","pernik",42.6,23.0333333
"bg","perustica",42.05,24.55
"bg","pestera",42.0333333,24.3
"bg","petric",41.4,23.2166667
"bg","pirdop",42.7,24.1833333
"bg","plackovci",42.8166667,25.4666667
"bg","pleven",43.4166667,24.6166667
"bg","pliska",43.3666667,27.1166667
"bg","plovdiv",42.15,24.75
"bg","pomorie",42.55,27.65
"bg","popovo",43.35,26.2333333
"bg","pordim",43.3833333,24.85
"bg","pravec",42.8833333,23.9166667
"bg","primorsko",42.2666667,27.7666667
"bg","provadija",43.1833333,27.4333333
"bg","radnevo",42.3,25.9333333
"bg","radomir",42.5444444,22.9577778
"bg","rakitovo",41.9833333,24.0833333
"bg","rakovski",42.3,24.9666667
"bg","razgrad",43.5333333,26.5166667
"bg","razlog",41.8902778,23.4791667
"bg","rila",42.1333333,23.1333333
"bg","roman",43.15,23.9166667
"bg","rudozem",41.4833333,24.85
"bg","ruse",43.8563889,25.9708333
"bg","sabla",43.5333333,28.5333333
"bg","sadovo",42.1333333,24.9333333
"bg","saedinenie",42.2666667,24.55
"bg","samokov",42.3333333,23.55
"bg","sandanski",41.5666667,23.2833333
"bg","senovo",43.65,26.3666667
"bg","septemvri",42.2166667,24.1
"bg","sevlievo",43.0258333,25.1136111
"bg","silistra",44.1166667,27.2666667
"bg","simeonovgrad",42.0333333,25.8333333
"bg","simitli",41.8833333,23.1166667
"bg","sipka",42.7166667,25.3333333
"bg","slavjanovo",43.4666667,24.8666667
"bg","sliven",42.6858333,26.3291667
"bg","smoljan",41.5852778,24.6919444
"bg","sofia",42.6833333,23.3166667
"bg","sopot",43.0166667,24.4166667
"bg","sozopol",42.4166667,27.7
"bg","sredec",42.3488889,27.1941667
"bg","stara zagora",42.4327778,25.6419444
"bg","straldza",42.6,26.6833333
"bg","strazica",43.2333333,25.9666667
"bg","strelca",42.5,24.3166667
"bg","suhindol",43.1916667,25.1811111
"bg","sumen",43.2766667,26.9291667
"bg","sungurlare",42.7666667,26.7833333
"bg","suvorovo",43.3333333,27.6
"bg","svilengrad",41.7666667,26.2
"bg","svistov",43.6230556,25.3538889
"bg","svoge",42.9666667,23.35
"bg","tervel",43.75,27.4
"bg","teteven",42.9166667,24.2666667
"bg","topolovgrad",42.0833333,26.3333333
"bg","tran",42.8352778,22.6516667
"bg","trastenik",43.5166667,24.4666667
"bg","trjavna",42.8666667,25.5
"bg","trojan",42.8833333,24.7166667
"bg","tutrakan",44.05,26.6166667
"bg","tvardica",42.7,25.9
"bg","ugarcin",43.1,24.4166667
"bg","varna",43.2166667,27.9166667
"bg","veliki preslav",43.1666667,26.8166667
"bg","velingrad",42.0166667,24
"bg","vetovo",43.7,26.2666667
"bg","vidin",43.99,22.8725
"bg","vraca",43.21,23.5625
"bg","zavet",43.7666667,26.6666667
"bg","zemen",42.4788889,22.7491667
"bg","zlatarica",43.05,25.9
"bg","zlatica",42.7166667,24.1333333
"bg","zlatograd",41.3833333,25.1
"by","braslav",55.6338889,27.0538889
"by","brest",52.1,23.7
"by","disna",55.5666667,28.2166667
"by","dzerzhinsk",53.685,27.1419444
"by","gomel",52.4416667,30.9833333
"by","haradok",55.4602778,30
"by","horki",54.2833333,30.9911111
"by","hrodna",53.6813889,23.8147222
"by","ivanava",52.1325,25.5461111
"by","kleck",53.0652778,26.6416667
"by","kobryn",52.2161111,24.3663889
"by","lida",53.8833333,25.2997222
"by","lyuban",52.8,28
"by","malaryta",51.7833333,24.0833333
"by","masty",53.4077778,24.5327778
"by","mazyr",52.05,29.2666667
"by","minsk",53.9,27.5666667
"by","navahrudak",53.6,25.8333333
"by","orsha",54.5152778,30.4052778
"by","pastavy",55.1163889,26.8338889
"by","pinsk",52.1213889,26.0727778
"by","salihorsk",52.8,27.5333333
"by","senno",54.8041667,29.7044444
"by","slonim",53.0866667,25.3219444
"by","stolin",51.8833333,26.85
"by","vawkavysk",53.1519444,24.4555556
"by","zabinka",52.2005556,24.0233333
"by","zlobin",52.8922222,30.0280556
"ch","aadorf",47.492721,8.898326
"ch","aarau",47.389616,8.052354
"ch","aarburg",47.319634,7.901413
"ch","adliswil",47.311896,8.528684
"ch","aesch",47.469456,7.595763
"ch","affoltern",47.281224,8.45346
"ch","aigle",46.318103,6.964567
"ch","allschwil",47.550744,7.535994
"ch","alpnach",46.940195,8.274263
"ch","altdorf",46.880422,8.644409
"ch","altstatten",47.379433,9.548989
"ch","amriswil",47.546992,9.298365
"ch","appenzell",47.328914,9.410547
"ch","arbon",47.515392,9.434779
"ch","arlesheim",47.495875,7.619839
"ch","arosa",46.777926,9.676206
"ch","arth",47.06337,8.523485
"ch","ascona",46.156255,8.778395
"ch","au",47.432211,9.633869
"ch","baar",47.196254,8.529544
"ch","baden",47.478029,8.302764
"ch","bad ragaz",47.005367,9.501217
"ch","bagnes",46.083333,7.216667
"ch","balsthal",47.31591,7.693047
"ch","basel",47.558395,7.573271
"ch","bassersdorf",47.443184,8.625859
"ch","bellinzona",46.195201,9.02283
"ch","belp",46.890805,7.499042
"ch","bern",46.916667,7.466667
"ch","bernex",46.177162,6.074159
"ch","bex",46.252137,7.011408
"ch","biasca",46.360581,8.969103
"ch","biberist",47.185591,7.56005
"ch","biel",47.141666,7.257589
"ch","binningen",47.533588,7.568512
"ch","birmensdorf",47.35465,8.437566
"ch","birsfelden",47.554953,7.645868
"ch","blonay",46.465737,6.895053
"ch","bolligen",46.974194,7.495697
"ch","bottmingen",47.522735,7.569016
"ch","boudry",46.953019,6.83897
"ch","bremgarten",47.352604,8.329955
"ch","brugg",47.481527,8.203014
"ch","bubikon",47.267748,8.818391
"ch","buchrain",47.086016,8.346213
"ch","buchs",47.387774,8.073525
"ch","buchs",47.169856,9.47544
"ch","bulach",47.518898,8.536967
"ch","bulle",46.619499,7.056743
"ch","buochs",46.973976,8.422788
"ch","burgdorf",47.058495,7.622139
"ch","bussigny",46.551102,6.555973
"ch","carouge",46.186153,6.13463
"ch","cham",47.182126,8.463576
"ch","chavannes",46.528825,6.592058
"ch","chene-bougeries",46.197545,6.162082
"ch","chene-bourg",46.193049,6.196567
"ch","chiasso",45.83491,9.02054
"ch","chur",46.856753,9.526918
"ch","colombier",46.967085,6.856604
"ch","conthey",46.225283,7.303715
"ch","crissier",46.55165,6.571253
"ch","delemont",47.366429,7.329005
"ch","derendingen",47.198505,7.588438
"ch","diepoldsau",47.384835,9.655969
"ch","dietikon",47.404446,8.394984
"ch","dietlikon",47.425084,8.618775
"ch","domat",46.834827,9.450752
"ch","dornach",47.478042,7.616417
"ch","dubendorf",47.395395,8.618366
"ch","dudingen",46.849152,7.188475
"ch","durnten",47.277691,8.842176
"ch","ebikon",47.079366,8.340411
"ch","ebnat-kappel",47.261951,9.124726
"ch","ecublens",46.60915,6.808706
"ch","egg",47.300555,8.687429
"ch","einsiedeln",47.126727,8.745245
"ch","embrach",47.507063,8.595681
"ch","emmen",47.081101,8.30477
"ch","epalinges",46.551775,6.668288
"ch","eschenbach",47.239806,8.921562
"ch","ettingen",47.482675,7.549821
"ch","fallanden",47.370719,8.639834
"ch","flawil",47.414611,9.182838
"ch","flums",47.092512,9.342604
"ch","frauenfeld",47.558159,8.898544
"ch","freienbach",47.204077,8.756933
"ch","frenkendorf",47.506858,7.716483
"ch","fribourg",46.79572,7.154748
"ch","frutigen",46.58782,7.64751
"ch","fully",46.138485,7.114872
"ch","gelterkinden",47.464968,7.85174
"ch","geneva",46.195602,6.148113
"ch","gerlafingen",47.169782,7.575051
"ch","giubiasco",46.176481,9.008847
"ch","gland",46.421233,6.266986
"ch","glarus",47.04057,9.068036
"ch","gossau",47.41694,9.251252
"ch","gossau",47.306992,8.757972
"ch","grabs",47.182061,9.443083
"ch","granichen",47.359297,8.10243
"ch","greifensee",47.367869,8.680017
"ch","grenchen",47.19354,7.396577
"ch","heimberg",46.794824,7.604332
"ch","hergiswil",46.984209,8.310356
"ch","herisau",47.386276,9.280779
"ch","herrliberg",47.288144,8.612224
"ch","herzogenbuchsee",47.187406,7.707457
"ch","hinwil",47.300822,8.842076
"ch","hochdorf",47.168408,8.291788
"ch","hombrechtikon",47.25208,8.77437
"ch","horgen",47.255924,8.598672
"ch","horw",47.016917,8.309556
"ch","hunenberg",47.178931,8.423515
"ch","huttwil",47.11502,7.862087
"ch","igis",46.945308,9.57218
"ch","ingenbohl",47.004642,8.614768
"ch","interlaken",46.683872,7.866376
"ch","jona",47.230265,8.841838
"ch","kerns",46.900882,8.276516
"ch","kilchberg",47.318309,8.551172
"ch","kirchberg",47.411412,9.039848
"ch","kirchberg",47.086574,7.588896
"ch","kloten",47.449817,8.594777
"ch","koniz",46.923391,7.408688
"ch","konolfingen",46.879674,7.622618
"ch","kreuzlingen",47.648212,9.180338
"ch","kriens",47.035366,8.276307
"ch","kusnacht",47.31776,8.581943
"ch","kussnacht",47.085571,8.442057
"ch","kuttigen",47.415658,8.047673
"ch","la chaux-de-fonds",47.104417,6.828892
"ch","lachen",47.191524,8.856195
"ch","langenthal",47.21526,7.796072
"ch","langnau",46.93936,7.78738
"ch","langnau",47.285027,8.534167
"ch","la tour-de-peilz",46.453552,6.858596
"ch","laufen",47.420878,7.507521
"ch","lausanne",46.533333,6.666667
"ch","lausen",47.475823,7.765687
"ch","le grand-saconnex",46.226419,6.123303
"ch","le locle",47.059533,6.752278
"ch","le mont-sur-lausanne",46.557743,6.634562
"ch","lengnau",47.183824,7.373714
"ch","lenzburg",47.384048,8.181798
"ch","liestal",47.482779,7.742975
"ch","littau",47.050004,8.262739
"ch","locarno",46.16497,8.799253
"ch","losone",46.133333,8.75
"ch","lugano",46.006182,8.951142
"ch","lutry",46.504873,6.685161
"ch","luzern",47.083333,8.266667
"ch","lyss",47.077573,7.31162
"ch","malters",47.03628,8.181928
"ch","mannedorf",47.252851,8.690581
"ch","martigny",46.104593,7.076771
"ch","massagno",46.015621,8.945343
"ch","maur",47.339262,8.671352
"ch","meggen",47.04722,8.369489
"ch","meilen",47.270429,8.643675
"ch","meiringen",46.726776,8.183961
"ch","mendrisio",45.86741,8.982097
"ch","menziken",47.242487,8.19047
"ch","meyrin",46.228245,6.064189
"ch","minusio",46.175242,8.820102
"ch","mohlin",47.556412,7.846873
"ch","monthey",46.255457,6.960665
"ch","montreux",46.433715,6.913179
"ch","morges",46.511255,6.495693
"ch","moutier",47.277733,7.369712
"ch","munchenbuchsee",47.020946,7.448956
"ch","munchenstein",47.510513,7.617668
"ch","munsingen",46.87309,7.568647
"ch","muri",47.270428,8.3382
"ch","muri",46.931714,7.494164
"ch","murten",46.92684,7.110343
"ch","muttenz",47.525259,7.644511
"ch","naters",46.32448,7.99137
"ch","nendaz",46.191142,7.311152
"ch","neuchatel",46.993089,6.93005
"ch","neuenhof",47.452596,8.325772
"ch","neuenkirch",47.099891,8.204161
"ch","nidau",47.129167,7.238464
"ch","nyon",46.388848,6.239319
"ch","oberengstringen",47.410151,8.460978
"ch","oberentfelden",47.360291,8.039193
"ch","oberglatt",47.475281,8.520368
"ch","oberriet",47.319883,9.566079
"ch","obersiggenthal",47.489554,8.290437
"ch","oberuzwil",47.430722,9.124194
"ch","oberwil",47.508519,7.555238
"ch","oftringen",47.31382,7.925327
"ch","ollon",46.297564,6.99499
"ch","olten",47.357058,7.909101
"ch","onex",46.183909,6.101809
"ch","opfikon",47.432553,8.580231
"ch","orbe",46.724717,6.530103
"ch","payerne",46.82201,6.93608
"ch","peseux",46.982998,6.881593
"ch","pfaffikon",47.364528,8.78395
"ch","plan-les-ouates",46.167615,6.119125
"ch","porrentruy",47.415327,7.075221
"ch","pratteln",47.52118,7.688415
"ch","pregassona",46.02142,8.969476
"ch","prilly",46.522445,6.622151
"ch","pully",46.510544,6.656071
"ch","rapperswil",47.227986,8.825954
"ch","regensdorf",47.429855,8.465128
"ch","reinach",47.259435,8.188453
"ch","renens",46.539894,6.588096
"ch","rheinfelden",47.562979,7.780108
"ch","richterswil",47.207416,8.705841
"ch","risch",46.409984,7.338869
"ch","romanshorn",47.565858,9.378694
"ch","rothrist",47.305162,7.890945
"ch","rumlang",47.451787,8.526777
"ch","ruschlikon",47.307744,8.555743
"ch","ruswil",47.084253,8.126446
"ch","ruti",47.261507,8.852445
"ch","saanen",46.489557,7.259609
"ch","saint-imier",47.152195,6.995124
"ch","sankt margrethen",47.442304,9.629598
"ch","sargans",47.048421,9.444797
"ch","sarnen",46.898509,8.250681
"ch","saviese",46.251153,7.345578
"ch","schaffhausen",47.697316,8.634929
"ch","schattdorf",46.865501,8.654655
"ch","schlieren",47.39646,8.448587
"ch","schonenwerd",47.3691,8.001674
"ch","schubelbach",47.173785,8.927867
"ch","schwyz",47.027858,8.656112
"ch","seon",47.3449,8.156071
"ch","seuzach",47.536974,8.731668
"ch","sevelen",47.122292,9.489926
"ch","sierre",46.293235,7.536934
"ch","sion",46.229076,7.359417
"ch","sirnach",47.463275,8.990668
"ch","sissach",47.467368,7.799596
"ch","solothurn",47.206649,7.516605
"ch","spiez",46.684733,7.691108
"ch","spreitenbach",47.420159,8.363006
"ch","stafa",47.239059,8.725646
"ch","stans",46.958449,8.365995
"ch","steffisburg",46.778074,7.63249
"ch","steinhausen",47.195101,8.485809
"ch","suhr",47.371725,8.079669
"ch","sulgen",47.5377,9.18497
"ch","sumiswald",47.027467,7.745257
"ch","sursee",47.170881,8.111132
"ch","teufen",47.390723,9.389564
"ch","thalwil",47.289515,8.567546
"ch","therwil",47.501166,7.552859
"ch","thonex",46.188186,6.196893
"ch","thun",46.751176,7.621663
"ch","trimbach",47.365605,7.886797
"ch","uetendorf",46.773917,7.572506
"ch","unterageri",47.136445,8.585305
"ch","unterseen",46.6853,7.847225
"ch","untersiggenthal",47.503174,8.254838
"ch","urdorf",47.382958,8.428597
"ch","urtenen",47.026668,7.500814
"ch","uster",47.351997,8.713687
"ch","uznach",47.224209,8.982634
"ch","uzwil",47.438134,9.139218
"ch","vernier",46.217693,6.08511
"ch","versoix",46.284017,6.161659
"ch","vevey",46.465264,6.841168
"ch","veyrier",46.166485,6.185442
"ch","viganello",46.015037,8.967779
"ch","villars-sur-glane",46.791892,7.117215
"ch","villmergen",47.349173,8.245828
"ch","visp",46.294524,7.884736
"ch","volketswil",47.389983,8.691548
"ch","wadenswil",47.228726,8.670585
"ch","wahlern",46.828062,7.353178
"ch","wald",47.276331,8.914128
"ch","wallisellen",47.418328,8.589816
"ch","wattwil",47.302253,9.08757
"ch","weinfelden",47.566194,9.107546
"ch","wettingen",47.470495,8.31636
"ch","wetzikon",47.325771,8.795716
"ch","wil",47.462147,9.04289
"ch","windisch",47.476756,8.220846
"ch","winterthur",47.500035,8.7251
"ch","wittenbach",47.463075,9.37761
"ch","wohlen",47.352359,8.278768
"ch","wohlen",46.972336,7.358493
"ch","wollerau",47.19478,8.719029
"ch","worb",46.930286,7.562099
"ch","yverdon",46.777908,6.635502
"ch","zermatt",46.021256,7.74912
"ch","zofingen",47.289945,7.947274
"ch","zollikofen",46.995678,7.459013
"ch","zollikon",47.338967,8.577801
"ch","zuchwil",47.207778,7.561126
"ch","zug",47.172421,8.517445
"ch","zumikon",47.327409,8.620752
"ch","zurich",47.366667,8.55
"cy","aradippou",34.95,33.5916667
"cy","chlorakas",34.8041667,32.4083333
"cy","dipkarpaz",35.6,34.375
"cy","dromolaxia",34.8791667,33.5833333
"cy","empa",34.8083333,32.425
"cy","gazimagusa",35.125,33.95
"cy","geri",35.1,33.4166667
"cy","girne",35.3416667,33.3166667
"cy","guzelyurt",35.1980556,32.9913889
"cy","iskele",35.2875,33.8916667
"cy","lapithos",35.3125,33.1416667
"cy","larnaca",34.9166667,33.6291667
"cy","lefka",35.1105556,32.8505556
"cy","lemesos",34.675,33.0333333
"cy","livadia",34.9541667,33.6291667
"cy","nicosia",35.1666667,33.3666667
"cy","pafos",34.7666667,32.4166667
"cy","pano polemidia",34.7,33
"cy","paralimni",35.0375,33.9833333
"cy","polis",35.0366667,32.4263889
"cy","ypsonas",34.6833333,32.9583333
"cy","ziyamet",35.4708333,34.1416667
"cz","adamov",49.301409,16.655487
"cz","albrechtice",50.857945,15.033725
"cz","bakov nad jizerou",50.478355,14.939416
"cz","banov",48.988364,17.721403
"cz","baska",49.64417,18.371902
"cz","batelov",49.313905,15.396317
"cz","bechyne",49.299118,14.469875
"cz","becov",50.44922,13.717491
"cz","bela pod bezdezem",50.503175,14.799517
"cz","benatky nad jizerou",50.28619,14.834337
"cz","benesov",49.782377,14.686569
"cz","benesov nad ploucnici",50.738658,14.311497
"cz","beroun",49.966171,14.060086
"cz","bilina",50.548752,13.775444
"cz","bilovec",49.75703,18.016558
"cz","bilovice nad svitavou",49.245536,16.671772
"cz","blansko",49.363931,16.647513
"cz","blatna",49.427165,13.884526
"cz","blovice",49.583231,13.533991
"cz","blucina",49.055618,16.647764
"cz","bludov",49.942862,16.926266
"cz","bochov",50.150569,13.046016
"cz","bohumin",49.901831,18.360679
"cz","bohunovice",49.66286,17.289043
"cz","bohusovice nad ohri",50.494477,14.149776
"cz","bojkovice",49.037279,17.816865
"cz","bolatice",49.953699,18.082143
"cz","bor",49.713098,12.776297
"cz","borohradek",50.096142,16.092833
"cz","borovany",48.899809,14.642921
"cz","borsice",49.061597,17.350058
"cz","boskovice",49.490899,16.659172
"cz","brandys nad labem-stara boleslav",50.183608,14.659499
"cz","brasy",49.832415,13.568605
"cz","breclav",48.757723,16.890041
"cz","breznice",49.558764,13.950916
"cz","brezova",50.196603,12.87048
"cz","bridlicna",49.911432,17.365002
"cz","brno",49.2,16.633333
"cz","brodek u prerova",49.484523,17.336783
"cz","broumov",50.585292,16.331815
"cz","brtnice",49.310551,15.674454
"cz","bruntal",49.989638,17.463217
"cz","brusperk",49.699167,18.222021
"cz","buchlovice",49.088463,17.340304
"cz","bucovice",49.150789,17.002631
"cz","budisov nad budisovkou",49.794289,17.628931
"cz","bustehrad",50.154904,14.187483
"cz","bystrice",49.641899,18.730349
"cz","bystrice",49.731793,14.667197
"cz","bystrice nad pernstejnem",49.52333,16.25941
"cz","bystrice pod hostynem",49.399643,17.674172
"cz","bzenec",48.970968,17.269298
"cz","caslav",49.912041,15.39483
"cz","cejkovice",48.883333,16.283333
"cz","celadna",49.552926,18.346749
"cz","celakovice",50.163545,14.755924
"cz","cercany",49.849118,14.706445
"cz","cerna hora",49.41309,16.581007
"cz","cernilov",50.263472,15.914827
"cz","cernosice",49.958377,14.319865
"cz","cervena voda",50.042613,16.742237
"cz","cerveny kostelec",50.476607,16.093114
"cz","ceska kamenice",50.800341,14.418459
"cz","ceska lipa",50.686736,14.538125
"cz","ceska skalice",50.394014,16.049184
"cz","ceska trebova",49.901115,16.445046
"cz","ceska ves",50.257388,17.228514
"cz","ceske budejovice",48.983333,14.466667
"cz","ceske velenice",48.764608,14.95924
"cz","cesky brod",50.07358,14.858163
"cz","cesky dub",50.660313,14.995326
"cz","cesky krumlov",48.81264,14.318207
"cz","cesky tesin",49.745479,18.621783
"cz","chabarovice",50.67493,13.939411
"cz","cheb",50.075777,12.374676
"cz","chlumcany",49.631497,13.310957
"cz","chlumec",50.699732,13.936998
"cz","chlumec nad cidlinou",50.156747,15.45845
"cz","chlum u trebone",48.961325,14.92961
"cz","chocen",50.004354,16.22068
"cz","chodov",50.239093,12.748613
"cz","chomutov",50.463532,13.41365
"cz","chotebor",49.717964,15.672295
"cz","chotesov",49.655302,13.201168
"cz","chrastava",50.816043,14.968178
"cz","chropyne",49.361302,17.367619
"cz","chrudim",49.95,15.8
"cz","chvaletice",50.027712,15.445573
"cz","chynov",49.408237,14.811225
"cz","cvikov",50.777624,14.632985
"cz","dacice",49.079485,15.4357
"cz","decin",50.77137,14.198248
"cz","desna",50.757871,15.311269
"cz","detmarovice",49.894051,18.462384
"cz","dobra",49.672268,18.414883
"cz","dobrany",49.653671,13.29378
"cz","dobrichovice",49.930846,14.27753
"cz","dobris",49.780879,14.170542
"cz","dobronin",49.48208,15.679466
"cz","dobrovice",50.366759,14.961847
"cz","dobruska",50.291973,16.161633
"cz","dobsice",48.85,16.083333
"cz","doksy",50.565654,14.654607
"cz","dolany",49.64881,17.322268
"cz","dolni benesov",49.922199,18.113812
"cz","dolni bojanovice",48.857761,17.028111
"cz","dolni bousov",50.437513,15.127006
"cz","dolni dobrouc",49.992745,16.498762
"cz","dolni kounice",49.07548,16.458775
"cz","dolni lutyne",49.902974,18.423696
"cz","dolni nemci",48.968436,17.584023
"cz","dolni poustevna",50.991419,14.293227
"cz","domazlice",49.441403,12.925536
"cz","doudleby nad orlici",50.107118,16.258362
"cz","drnovice",49.274783,16.950789
"cz","dubi",50.674556,13.79464
"cz","dubnany",48.922718,17.104341
"cz","duchcov",50.608973,13.744816
"cz","dvur kralove",50.429766,15.813812
"cz","frantiskovy lazne",50.12425,12.348123
"cz","frenstat",49.544884,18.210243
"cz","frycovice",49.674995,18.228693
"cz","frydek-mistek",49.683333,18.35
"cz","frydlant",50.923446,15.077856
"cz","frydlant nad ostravici",49.591096,18.359548
"cz","frystak",49.291023,17.693884
"cz","fulnek",49.713098,17.900844
"cz","golcuv jenikov",49.816395,15.477346
"cz","habartov",50.193493,12.574425
"cz","haj ve slezsku",49.898602,18.098483
"cz","halenkov",49.319523,18.146193
"cz","hanusovice",50.079228,16.93492
"cz","havirov",49.8,18.4
"cz","havlickuv brod",49.614082,15.564558
"cz","hejnice",50.878539,15.181515
"cz","hermanuv mestec",49.936342,15.678921
"cz","hlinsko",49.763832,15.909317
"cz","hlubocky",49.628217,17.403569
"cz","hluboka nad vltavou",49.05379,14.454533
"cz","hlucin",49.896907,18.191661
"cz","hluk",48.987772,17.526427
"cz","hodkovice nad mohelkou",50.665805,15.090202
"cz","hodonin",48.856013,17.123073
"cz","holesov",49.329979,17.577216
"cz","holice",50.069729,15.992836
"cz","holysov",49.592964,13.100612
"cz","horice",50.369111,15.630551
"cz","horka nad moravou",49.638936,17.207852
"cz","horni becva",49.433333,18.283333
"cz","horni benesov",49.967143,17.603331
"cz","horni briza",49.842714,13.361977
"cz","horni jiretin",50.566667,13.566667
"cz","horni plana",48.768088,14.043873
"cz","horni slavkov",50.139647,12.806378
"cz","horni sucha",49.804997,18.476979
"cz","horomerice",50.133877,14.334353
"cz","horovice",49.836564,13.902058
"cz","hostinne",50.540171,15.730411
"cz","hostivice",50.080782,14.255397
"cz","hovezi",49.304997,18.06167
"cz","hovorany",48.95513,16.990661
"cz","hradec kralove",50.207744,15.829455
"cz","hradek",49.26142,13.495013
"cz","hranice",50.303473,12.17667
"cz","hranice",49.556306,17.735236
"cz","hrob",50.656467,13.724949
"cz","hronov",50.476002,16.182718
"cz","hrusovany nad jevisovkou",48.833333,16.4
"cz","hrusovany u brna",49.036583,16.591713
"cz","hukvaldy",49.624767,18.22096
"cz","hulin",49.314891,17.471896
"cz","humpolec",49.541739,15.35586
"cz","hustopece",48.941028,16.73353
"cz","ivancice",49.101315,16.37623
"cz","ivanovice na hane",49.304928,17.093292
"cz","jablonec",50.720474,15.171128
"cz","jablonec nad jizerou",50.704428,15.42863
"cz","jablonne nad orlici",50.030388,16.603926
"cz","jablonne v podjestedi",50.763952,14.761264
"cz","jablunka",49.38369,17.950487
"cz","jablunkov",49.574677,18.769523
"cz","jachymov",50.365752,12.922539
"cz","janovice nad uhlavou",49.344417,13.217585
"cz","jaromerice nad rokytnou",49.095265,15.891582
"cz","jaromer",50.349199,15.920442
"cz","javornik",50.395669,17.01267
"cz","jedovnice",49.344289,16.755841
"cz","jemnice",49.017549,15.576795
"cz","jesenice",49.969168,14.514608
"cz","jesenik",50.229906,17.203426
"cz","jevicko",49.632619,16.711918
"cz","jicin",50.435841,15.355569
"cz","jihlava",49.4,15.583333
"cz","jilemnice",50.605466,15.50996
"cz","jilove",50.751482,14.109192
"cz","jilove u prahy",49.898235,14.496985
"cz","jince",49.788652,13.976619
"cz","jindrichuv hradec",49.144852,15.0025
"cz","jirikov",50.993215,14.572155
"cz","jirkov",50.5,13.45
"cz","jistebnice",49.485539,14.527817
"cz","kadan",50.384339,13.267338
"cz","kamenice",49.901177,14.5812
"cz","kamenice nad lipou",49.302353,15.076126
"cz","kamenicky senov",50.773234,14.472826
"cz","kaplice",48.739407,14.493856
"cz","kardasova recice",49.184224,14.853137
"cz","karlovy vary",50.237003,12.875042
"cz","karolinka",49.351904,18.24642
"cz","karvina",49.856792,18.546907
"cz","kaznejov",49.893351,13.381569
"cz","kdyne",49.392123,13.039451
"cz","kelc",49.478455,17.819404
"cz","kladno",50.142037,14.096549
"cz","klasterec nad ohri",50.388821,13.182397
"cz","klatovy",49.39717,13.289064
"cz","klecany",50.176478,14.412374
"cz","klimkovice",49.788341,18.127265
"cz","koberice",49.984879,18.056068
"cz","kobyli",48.931754,16.888425
"cz","kojetin",49.350476,17.302747
"cz","kolin",50.026904,15.202311
"cz","komarov",49.807361,13.858013
"cz","konice",49.592494,16.888092
"cz","kopidlno",50.333198,15.26877
"cz","koprivnice",49.598453,18.145241
"cz","korycany",49.109827,17.166496
"cz","kosmonosy",50.436676,14.928258
"cz","kostelec nad cernymi lesy",49.995688,14.861005
"cz","kostelec nad labem",50.226468,14.58672
"cz","kostelec nad orlici",50.123826,16.211445
"cz","kostelec na hane",49.514288,17.058101
"cz","kozlovice",49.600238,18.257268
"cz","kraliky",50.084047,16.759172
"cz","kralovice",49.98058,13.485576
"cz","kralupy nad vltavou",50.239486,14.300742
"cz","kraluv dvur",49.947837,14.038397
"cz","kraslice",50.327579,12.511121
"cz","krasna lipa",50.48378,13.357497
"cz","kravare",49.932857,18.017489
"cz","kremze",48.905005,14.309279
"cz","krnov",50.089054,17.698012
"cz","kromeriz",49.295955,17.395659
"cz","krupka",50.681912,13.864749
"cz","kryry",50.17508,13.42508
"cz","kuncice pod ondrejnikem",49.56047,18.255484
"cz","kunovice",49.040529,17.466141
"cz","kunstat",49.506871,16.521307
"cz","kurim",49.302631,16.532675
"cz","kutna hora",49.95,15.266667
"cz","kvasice",49.23974,17.471008
"cz","kynsperk nad ohri",50.11917,12.531531
"cz","lanskroun",49.911432,16.612503
"cz","lanzhot",48.723731,16.96522
"cz","lazne belohrad",50.428875,15.582745
"cz","lazne bohdanec",50.076389,15.682222
"cz","ledec",49.696295,15.274891
"cz","ledenice",48.933078,14.621598
"cz","lednice",48.797895,16.803683
"cz","lesna",49.519404,17.93131
"cz","letohrad",50.035969,16.496683
"cz","letovice",49.547591,16.576105
"cz","libcice nad vltavou",50.197949,14.354321
"cz","liberec",50.763889,15.065278
"cz","libochovice",50.4097,14.069006
"cz","libusin",50.167322,14.054582
"cz","line",49.69531,13.257388
"cz","lisov",49.016476,14.6081
"cz","litomerice",50.538408,14.130347
"cz","litomysl",49.86898,16.313674
"cz","litovel",49.706317,17.076908
"cz","litvinov",50.601105,13.612673
"cz","loket",50.185921,12.754252
"cz","lom",50.59408,13.660254
"cz","lomnice nad popelkou",50.532459,15.370539
"cz","lostice",49.745003,16.930656
"cz","loucna nad desnou",50.073687,17.091196
"cz","loucovice",48.620897,14.249763
"cz","louny",50.355707,13.809376
"cz","lovosice",50.514231,14.052128
"cz","luby",50.253328,12.404506
"cz","ludgerovice",49.884296,18.249405
"cz","luhacovice",49.097632,17.749896
"cz","luka nad jihlavou",49.375568,15.700632
"cz","lutin",49.556673,17.139519
"cz","luze",49.893878,16.029931
"cz","luzice",48.83974,17.07035
"cz","lysa nad labem",50.201139,14.841773
"cz","marianske lazne",49.960197,12.700682
"cz","melnik",50.361082,14.472342
"cz","merin",49.391768,15.88687
"cz","mestec kralove",50.205726,15.296462
"cz","mesto albrechtice",50.16305,17.572759
"cz","mezibori",50.621852,13.60102
"cz","mezimesti",50.626582,16.242148
"cz","mikulasovice",50.965381,14.364363
"cz","mikulcice",48.817654,17.05
"cz","mikulovice",50.300642,17.324338
"cz","mikulov",48.806314,16.637074
"cz","milevsko",49.451895,14.361574
"cz","milin",49.633333,14.046329
"cz","milotice",48.955224,17.142277
"cz","milovice",50.228034,14.889739
"cz","mimon",50.65575,14.729251
"cz","miroslav",48.95,16.316667
"cz","mirosov",49.690165,13.66891
"cz","mlada boleslav",50.42311,14.919316
"cz","mlada vozice",49.538113,14.813137
"cz","mlade buky",50.604513,15.84315
"cz","mnichovice",49.936421,14.708604
"cz","mnichovo hradiste",50.522981,14.974758
"cz","mnisek pod brdy",49.865009,14.264299
"cz","modrice",49.130176,16.611011
"cz","mohelnice",49.777384,16.918452
"cz","moravska nova ves",48.804341,17.012853
"cz","moravska trebova",49.755711,16.657149
"cz","moravske budejovice",49.052105,15.810128
"cz","moravsky beroun",49.796431,17.444735
"cz","moravsky krumlov",49.046745,16.30917
"cz","moravsky pisek",48.988068,17.329189
"cz","morkovice-slizany",49.247255,17.21128
"cz","morkov",49.536277,18.06176
"cz","most",50.509611,13.639121
"cz","mosty u jablunkova",49.534671,18.753926
"cz","mutenice",48.902988,17.026664
"cz","nachod",50.416667,16.166667
"cz","napajedla",49.177848,17.517417
"cz","navsi",49.589936,18.754532
"cz","nechanice",50.237115,15.635234
"cz","nejdek",50.32224,12.730727
"cz","nemcice nad hanou",49.342743,17.209161
"cz","nepomuk",49.487615,13.583583
"cz","neratovice",50.262281,14.508592
"cz","netolice",49.050948,14.198223
"cz","neveklov",49.751765,14.544805
"cz","nivnice",48.97692,17.64596
"cz","nova bystrice",49.019462,15.104118
"cz","nova paka",50.489941,15.516498
"cz","nova role",50.271955,12.786849
"cz","nova vcelnice",49.239363,15.072403
"cz","nove hrady",48.790466,14.778111
"cz","nove mesto nad metuji",50.354135,16.139448
"cz","nove mesto na morave",49.562994,16.074353
"cz","nove mesto pod smrkem",50.92634,15.22973
"cz","nove sedlo",50.210998,12.739372
"cz","nove straseci",50.153997,13.90082
"cz","novosedlice",50.65795,13.822201
"cz","novy bor",50.757126,14.556747
"cz","novy bydzov",50.2411,15.491409
"cz","novy hrozenkov",49.339768,18.205008
"cz","novy jicin",49.598334,18.012384
"cz","novy malin",49.95,17.033333
"cz","nydek",49.659767,18.763336
"cz","nymburk",50.190375,15.03947
"cz","nyrany",49.714397,13.207057
"cz","nyrsko",49.292258,13.142736
"cz","obrnice",50.503511,13.697048
"cz","odolena voda",50.232887,14.411094
"cz","odry",49.666667,17.833333
"cz","okrisky",49.24487,15.768936
"cz","olomouc",49.59404,17.25119
"cz","olovi",50.244662,12.55825
"cz","opatovice nad labem",50.151404,15.791597
"cz","opava",49.93846,17.902628
"cz","opocno",50.269932,16.110817
"cz","orechov",49.11351,16.517417
"cz","orlova",49.860351,18.444873
"cz","osek",50.624513,13.694421
"cz","oslavany",49.121758,16.338463
"cz","ostrava",49.811852,18.255282
"cz","ostrov",50.307349,12.94792
"cz","ostrozska nova ves",49.004698,17.437016
"cz","otrokovice",49.207366,17.523862
"cz","pacov",49.471272,15.004092
"cz","palkovice",49.628455,18.302271
"cz","pardubice",50.027778,15.775833
"cz","paskov",49.733452,18.290601
"cz","pecky",50.090851,15.030752
"cz","pelhrimov",49.428201,15.223368
"cz","peruc",50.342619,13.960352
"cz","petrovice u karvine",49.898572,18.532976
"cz","petrvald",49.828425,18.390542
"cz","pisek",49.308408,14.149171
"cz","plana nad luznici",49.344926,14.713605
"cz","plana",49.867527,12.74151
"cz","plasy",49.931803,13.382054
"cz","plesna",50.217447,12.349792
"cz","plumlov",49.466667,17.016667
"cz","plzen",49.75,13.366667
"cz","pocatky",49.261044,15.238458
"cz","podborany",50.226883,13.409585
"cz","podebrady",50.147421,15.118661
"cz","podivin",48.829387,16.849737
"cz","pohorelice",48.983333,16.516667
"cz","polesovice",49.033464,17.342672
"cz","police nad metuji",50.538067,16.234725
"cz","policka",49.715579,16.268436
"cz","polna",49.487442,15.716744
"cz","postoloprty",50.359982,13.696013
"cz","postrelmov",49.910957,16.916429
"cz","povrly",50.673057,14.160202
"cz","pozorice",49.210654,16.791883
"cz","prachatice",49.014417,13.999526
"cz","prague",50.083333,14.466667
"cz","prelouc",50.038042,15.560284
"cz","prerov",49.453926,17.452379
"cz","prestice",49.574825,13.328597
"cz","pribor",49.640482,18.150476
"cz","pribram",49.691355,14.020575
"cz","pribyslav",49.57721,15.738639
"cz","probostov",50.666667,13.833333
"cz","prosec",49.807075,16.116531
"cz","prostejov",49.47333,17.113455
"cz","protivin",49.201066,14.214535
"cz","pruhonice",50.001471,14.559534
"cz","prusanky",48.828992,16.983727
"cz","rajec-jestrebi",49.416667,16.633333
"cz","rajhrad",49.087673,16.604472
"cz","rakovnik",50.10257,13.728775
"cz","rakvice",48.856971,16.814168
"cz","rapotin",49.983333,17.016667
"cz","raspenava",50.899712,15.133397
"cz","ratiskovice",48.918075,17.162063
"cz","revnice",49.913114,14.240644
"cz","ricany",49.992672,14.658531
"cz","rohatec",48.933333,17.166667
"cz","rokycany",49.74047,13.592556
"cz","rokytnice nad jizerou",50.72763,15.445253
"cz","rosice",49.181825,16.393079
"cz","rotava",50.297435,12.573072
"cz","roudnice",50.421241,14.257235
"cz","rousinov",49.82358,14.813137
"cz","rozmital pod tremsinem",49.607461,13.8706
"cz","roznov",49.4606,18.136664
"cz","roztoky",50.161771,14.392392
"cz","rtyne v podkrkonosi",50.506405,16.069229
"cz","ruda nad moravou",49.981072,16.877622
"cz","rudna",50.032859,14.225905
"cz","rudnik",50.608353,15.737229
"cz","rudolfov",48.989583,14.542241
"cz","rumburk",50.953564,14.553788
"cz","rychnov nad kneznou",50.166667,16.283333
"cz","rychvald",49.868333,18.375828
"cz","sadska",50.136909,14.985015
"cz","sardice",48.963116,17.03136
"cz","sazava",49.870565,14.895367
"cz","sedlcany",49.65885,14.423418
"cz","semily",50.602889,15.33768
"cz","senov",49.790917,18.375858
"cz","sezemice",50.066321,15.850651
"cz","sezimovo usti",49.377523,14.702868
"cz","sitborice",49.014957,16.777808
"cz","skutec",49.842468,15.994781
"cz","slany",50.232504,14.074934
"cz","slapanice",49.165352,16.725835
"cz","slatinany",49.918333,15.815192
"cz","slavicin",49.087973,17.879764
"cz","slavkov u brna",49.153157,16.879558
"cz","slavonice",48.998229,15.350296
"cz","sluknov",51.004656,14.453761
"cz","slusovice",49.250592,17.79852
"cz","smirice",50.300086,15.865792
"cz","smrzovka",50.735331,15.244694
"cz","sobeslav",49.259093,14.718653
"cz","sobotin",50.016667,17.1
"cz","sobotka",50.467115,15.175501
"cz","sokolov",50.178428,12.647147
"cz","solnice",50.203468,16.238854
"cz","spalene porici",49.612487,13.605553
"cz","stankov",49.552243,13.06993
"cz","stara paka",50.510833,15.49
"cz","stara ves nad ondrejnici",49.726075,18.19404
"cz","stare mesto",50.161224,16.946342
"cz","stare mesto",49.076493,17.437993
"cz","stary jicin",49.577494,17.961908
"cz","stary plzenec",49.694596,13.474666
"cz","stepankovice",49.957387,18.03714
"cz","stepanov",50.162384,16.917024
"cz","sternberk",49.726551,17.292981
"cz","steti",50.453141,14.378383
"cz","stity",49.961908,16.763931
"cz","stochov",50.139507,13.965953
"cz","stod",49.639961,13.16422
"cz","strakonice",49.260997,13.905073
"cz","stramberk",49.590958,18.117846
"cz","strani",48.905327,17.705316
"cz","strasice",49.735474,13.757592
"cz","straznice",48.898948,17.311932
"cz","straz pod ralskem",50.698886,14.794952
"cz","strelice",49.15342,16.500263
"cz","stribro",49.754845,12.995478
"cz","studena",49.187082,15.28649
"cz","studenka",49.719889,18.074529
"cz","suchdol nad luznici",48.89419,14.878038
"cz","sumperk",49.965811,16.978874
"cz","susice",49.237292,13.523972
"cz","svetla nad sazavou",49.667892,15.402449
"cz","svitavy",49.755945,16.466791
"cz","svoboda nad upou",50.623117,15.817125
"cz","tabor",49.411005,14.672771
"cz","tachov",49.798116,12.635752
"cz","tanvald",50.740333,15.274131
"cz","telc",49.18228,15.458117
"cz","tepla",49.979968,12.864322
"cz","teplice",50.646569,13.840138
"cz","terezin",50.510696,14.149776
"cz","terlicko",49.752945,18.482957
"cz","tisnov",49.347502,16.425956
"cz","tlucna",49.724768,13.239043
"cz","tlumacov",49.252762,17.500987
"cz","touzim",50.055655,12.990823
"cz","tovacov",49.430834,17.287735
"cz","trebechovice pod orebem",50.201595,15.988212
"cz","trebic",49.210649,15.881458
"cz","trebon",49.005636,14.763256
"cz","tremosna",49.82666,13.391741
"cz","tremosnice",49.870259,15.577777
"cz","trhove sviny",48.841687,14.638371
"cz","trinec",49.680358,18.665348
"cz","trmice",50.642224,14.001877
"cz","trojanovice",49.515596,18.233463
"cz","troubky",49.429764,17.347977
"cz","trutnov",50.565612,15.914355
"cz","tuchlovice",50.136983,13.990812
"cz","turnov",50.592134,15.164575
"cz","tvrdonice",48.76088,16.992502
"cz","tynec nad sazavou",49.827817,14.598529
"cz","tyniste nad orlici",50.152992,16.076118
"cz","tyn nad vltavou",49.225516,14.418562
"cz","uherske hradiste",49.066667,17.463943
"cz","uhersky brod",49.025539,17.646646
"cz","uhersky ostroh",48.98866,17.394875
"cz","uhlirske janovice",49.881494,15.064461
"cz","unicov",49.772259,17.122268
"cz","upice",50.512965,16.016914
"cz","ustek",50.58494,14.345113
"cz","usti nad orlici",49.975283,16.397151
"cz","usti",50.666667,14.033333
"cz","uvaly",50.073111,14.725905
"cz","vacenovice",48.948027,17.174783
"cz","valasska bystrice",49.414654,18.109637
"cz","valasske klobouky",49.143456,18.01618
"cz","valasske mezirici",49.473211,17.972378
"cz","valtice",48.741812,16.757793
"cz","vamberk",50.117637,16.293932
"cz","varnsdorf",50.915389,14.617839
"cz","vejprnice",49.73007,13.277113
"cz","vejprty",50.49575,13.033892
"cz","velesin",48.83049,14.463114
"cz","velim",50.061389,15.101479
"cz","velka bites",49.28905,16.227124
"cz","velka bystrice",49.594408,17.360232
"cz","velka nad velickou",48.883333,17.533333
"cz","velke bilovice",48.849474,16.89145
"cz","velke hamry",50.717417,15.296648
"cz","velke karlovice",49.36405,18.3069
"cz","velke losiny",50.043327,17.053093
"cz","velke mezirici",49.355442,16.01449
"cz","velke opatovice",49.613217,16.676185
"cz","velke pavlovice",48.902269,16.814891
"cz","velke porici",50.458755,16.192494
"cz","velky osek",50.100358,15.192194
"cz","velky senov",50.992377,14.382757
"cz","velky tynec",49.551547,17.335117
"cz","velvary",50.281733,14.24153
"cz","vendryne",49.655127,18.699643
"cz","verovice",49.538936,18.119879
"cz","veseli nad luznici",49.184951,14.698235
"cz","veseli nad moravou",48.950888,17.382144
"cz","vetrni",48.77493,14.287545
"cz","veverska bityska",49.275743,16.436621
"cz","vikyrovice",49.983333,17.016667
"cz","vimperk",49.056271,13.785015
"cz","vitkov",49.775114,17.752379
"cz","vizovice",49.221403,17.853332
"cz","vlasim",49.703603,14.899412
"cz","vlcnov",49.580239,17.952866
"cz","vnorovy",48.929189,17.350493
"cz","vodnany",49.147394,14.170186
"cz","volary",48.91039,13.889017
"cz","volyne",50.448742,13.211491
"cz","votice",49.639484,14.640219
"cz","vracov",48.974388,17.21088
"cz","vranovice",48.966667,16.6
"cz","vratimov",49.768571,18.315002
"cz","vrbno pod pradedem",50.121807,17.379478
"cz","vrchlabi",50.624091,15.61315
"cz","vrdy",49.920754,15.471089
"cz","vresina",49.946431,18.191672
"cz","vsetaty",50.28187,14.592122
"cz","vsetin",49.341899,17.983582
"cz","vyskov",49.278302,17.002565
"cz","vysoke myto",49.953254,16.154723
"cz","vyssi brod",48.617733,14.31264
"cz","zabreh",49.884404,16.873092
"cz","zacler",50.65811,15.908241
"cz","zakupy",50.68491,14.646469
"cz","zamberk",50.086091,16.463802
"cz","zasova",49.476432,18.044408
"cz","zastavka",49.2,16.366667
"cz","zatec",50.326309,13.544673
"cz","zbiroh",49.8565,13.769114
"cz","zbysov",49.130834,16.806276
"cz","zdanice",49.067259,17.0284
"cz","zdice",49.914201,13.976926
"cz","zdounky",49.229255,17.314168
"cz","zelezna ruda",49.137768,13.232492
"cz","zelezny brod",50.645106,15.255259
"cz","zidlochovice",49.038068,16.614826
"cz","zirovnice",49.252133,15.188454
"cz","zlate hory",50.260746,17.395136
"cz","zlin",49.216667,17.666667
"cz","zliv",49.066667,14.366667
"cz","zlonice",50.286003,14.091592
"cz","zlutice",50.090704,13.162844
"cz","znojmo",48.856116,16.056412
"cz","zruc nad sazavou",49.744364,15.103751
"de","aachen",50.770833,6.105278
"de","aalen",48.833333,10.1
"de","abensberg",48.816667,11.85
"de","achern",48.633333,8.066667
"de","achim",53.033333,9.016667
"de","adendorf",53.283333,10.45
"de","aerzen",52.033333,9.266667
"de","ahaus",52.066667,7
"de","ahlen",51.75,7.916667
"de","ahrensburg",53.683333,10.25
"de","aichach",48.466667,11.133333
"de","ainring",47.816667,12.95
"de","aken",51.85,12.05
"de","albstadt",48.25,9.016667
"de","aldenhoven",50.9,6.283333
"de","alfeld",51.983333,9.833333
"de","alfter",50.733333,7.016667
"de","alpen",51.583333,6.516667
"de","alsdorf",50.883333,6.166667
"de","alsfeld",50.75,9.266667
"de","altdorf",48.15,12.183333
"de","altena",51.3,7.666667
"de","altenburg",50.983333,12.45
"de","altenholz",54.4,10.133333
"de","altenstadt",50.283333,8.95
"de","altensteig",48.583333,8.6
"de","altotting",48.233333,12.683333
"de","altusried",47.8,10.216667
"de","alzenau",50.083333,9.066667
"de","alzey",49.751667,8.116111
"de","amberg",49.441389,11.862222
"de","andernach",50.433333,7.4
"de","angermunde",53.033333,14
"de","anklam",53.866667,13.7
"de","annaberg-buchholz",50.566667,13
"de","anrochte",51.566667,8.333333
"de","ansbach",49.3,10.583333
"de","apen",53.216667,7.8
"de","apolda",51.016667,11.5
"de","arnsberg",51.383333,8.083333
"de","arnstadt",50.833333,10.95
"de","aschaffenburg",49.973889,9.149167
"de","ascheberg",51.783333,7.616667
"de","aschersleben",51.75,11.466667
"de","asperg",48.9,9.116667
"de","attendorn",51.116667,7.9
"de","aue",50.583333,12.7
"de","auerbach",50.516667,12.4
"de","augsburg",48.366667,10.883333
"de","augustdorf",51.9,8.733333
"de","aurich",53.466667,7.483333
"de","babenhausen",49.966667,8.957778
"de","backnang",48.95,9.433333
"de","bad aibling",47.866667,12
"de","bad bentheim",52.316667,7.166667
"de","bad berleburg",51.05,8.4
"de","bad bevensen",53.083333,10.583333
"de","bad bramstedt",53.916667,9.883333
"de","bad camberg",50.3,8.266667
"de","bad doberan",54.1,11.9
"de","bad driburg",51.733333,9.016667
"de","bad durkheim",49.468611,8.166389
"de","bad durrenberg",51.3,12.066667
"de","bad durrheim",48.016667,8.533333
"de","bad ems",50.333333,7.716667
"de","baden-baden",48.75,8.25
"de","bad essen",52.316667,8.333333
"de","bad frankenhausen",51.35,11.1
"de","bad freienwalde",52.783333,14.033333
"de","bad gandersheim",51.866667,10.033333
"de","bad harzburg",51.883333,10.566667
"de","bad hersfeld",50.866667,9.7
"de","bad homburg",50.216667,8.616667
"de","bad iburg",52.15,8.05
"de","bad kissingen",50.2,10.083333
"de","bad kreuznach",49.833333,7.866667
"de","bad krozingen",47.916272,7.700622
"de","bad laasphe",50.933333,8.4
"de","bad laer",52.1,8.083333
"de","bad langensalza",51.1,10.65
"de","bad lauterberg",51.65,10.466667
"de","bad liebenwerda",51.516667,13.4
"de","bad liebenzell",48.766667,8.733333
"de","bad lippspringe",51.783333,8.816667
"de","bad mergentheim",49.4925,9.773611
"de","bad munder",52.2,9.466667
"de","bad munstereifel",50.55,6.766667
"de","bad nauheim",50.366667,8.75
"de","bad nenndorf",52.333333,9.366667
"de","bad neuenahr-ahrweiler",50.55,7.1
"de","bad neustadt",50.333333,10.216667
"de","bad oeynhausen",52.2,8.8
"de","bad oldesloe",53.816667,10.383333
"de","bad orb",50.216667,9.35
"de","bad pyrmont",51.983333,9.25
"de","bad rappenau",49.240556,9.1025
"de","bad reichenhall",47.733333,12.883333
"de","bad sachsa",51.6,10.55
"de","bad sackingen",47.55,7.95
"de","bad salzdetfurth",52.05,10
"de","bad salzuflen",52.083333,8.766667
"de","bad salzungen",50.816667,10.233333
"de","bad sassendorf",51.583333,8.166667
"de","bad schwalbach",50.133333,8.066667
"de","bad schwartau",53.916667,10.7
"de","bad segeberg",53.933333,10.316667
"de","bad soden",50.133333,8.5
"de","bad soden-salmunster",50.283333,9.366667
"de","bad sooden-allendorf",51.283333,9.983333
"de","bad tolz",47.766667,11.566667
"de","bad urach",48.5,9.4
"de","bad vilbel",50.183333,8.75
"de","bad waldsee",47.916667,9.766667
"de","bad wildbad",48.75,8.55
"de","bad wildungen",51.116667,9.116667
"de","bad windsheim",49.5,10.416667
"de","bad worishofen",48.016667,10.6
"de","bad wurzach",47.9,9.9
"de","bad zwischenahn",53.183333,8
"de","baesweiler",50.9,6.183333
"de","baiersbronn",48.5,8.383333
"de","balingen",48.283333,8.85
"de","balve",51.333333,7.866667
"de","bamberg",49.866667,10.866667
"de","bargteheide",53.733333,10.266667
"de","barmstedt",53.783333,9.766667
"de","barntrup",51.983333,9.116667
"de","barsbuttel",53.566667,10.166667
"de","barsinghausen",52.3,9.45
"de","barth",54.366667,12.733333
"de","bassum",52.85,8.733333
"de","baunatal",51.25,9.416667
"de","bautzen",51.183333,14.433333
"de","bayreuth",49.948056,11.578333
"de","bebra",50.966667,9.8
"de","beckingen",49.4,6.7
"de","beckum",51.75,8.033333
"de","bedburg",51,6.583333
"de","beeskow",52.166667,14.25
"de","belm",52.3,8.133333
"de","bendorf",50.433333,7.566667
"de","bensheim",49.680278,8.616111
"de","bergen",52.816667,9.966667
"de","bergen",54.416667,13.433333
"de","bergheim",50.966667,6.65
"de","bergisch gladbach",50.983333,7.133333
"de","bergkamen",51.633333,7.633333
"de","bergneustadt",51.033333,7.65
"de","berlin",52.516667,13.4
"de","bernau",52.666667,13.583333
"de","bernburg",51.8,11.733333
"de","besigheim",48.983333,9.133333
"de","bestwig",51.366667,8.4
"de","betzdorf",50.783333,7.883333
"de","beverungen",51.666667,9.366667
"de","bexbach",49.333333,7.266667
"de","biberach",48.1,9.8
"de","biblis",49.691667,8.458611
"de","biedenkopf",50.916667,8.533333
"de","bielefeld",52.033333,8.533333
"de","bietigheim-bissingen",48.966667,9.133333
"de","billerbeck",51.966667,7.3
"de","bingen",49.966667,7.9
"de","birkenau",49.5625,8.706944
"de","birkenfeld",48.866667,8.633333
"de","bischofsheim",49.993889,8.367222
"de","bischofswerda",51.116667,14.183333
"de","bissendorf",52.233333,8.166667
"de","bitburg",49.966667,6.533333
"de","bitterfeld",51.616667,12.316667
"de","blankenburg",51.783333,10.95
"de","blaubeuren",48.4,9.783333
"de","blieskastel",49.233333,7.25
"de","blomberg",51.933333,9.083333
"de","blumberg",47.833333,8.533333
"de","bobenheim-roxheim",49.5875,8.357778
"de","bobingen",48.266667,10.833333
"de","boblingen",48.683333,9.016667
"de","bocholt",51.833333,6.6
"de","bochum",51.483333,7.216667
"de","bockenem",52.016667,10.133333
"de","bogen",48.916667,12.683333
"de","bohl-iggelheim",49.380556,8.303889
"de","bohmte",52.366667,8.316667
"de","boizenburg",53.383333,10.716667
"de","bonen",51.6,7.766667
"de","bonn",50.733333,7.1
"de","bopfingen",48.85,10.35
"de","boppard",50.233333,7.6
"de","borgentreich",51.566667,9.25
"de","borken",51.05,9.283333
"de","borken",51.85,6.866667
"de","borna",51.116667,12.5
"de","bornheim",50.766667,7
"de","bottrop",51.516667,6.916667
"de","bovenden",51.583333,9.933333
"de","brackenheim",49.079722,9.065
"de","brake",53.333333,8.483333
"de","brakel",51.716667,9.183333
"de","bramsche",52.4,7.983333
"de","brandenburg",52.416667,12.55
"de","brand-erbisdorf",50.866667,13.333333
"de","braunfels",50.516667,8.4
"de","breisach",48.032791,7.582937
"de","bremen",53.083333,8.8
"de","bremerhaven",53.55,8.583333
"de","bremervorde",53.483333,9.133333
"de","bretten",49.039167,8.702778
"de","bretzfeld",49.179444,9.438333
"de","brilon",51.4,8.583333
"de","bruchkobel",50.183333,8.916667
"de","bruchsal",49.128056,8.583611
"de","bruckmuhl",47.883333,11.916667
"de","bruggen",51.25,6.183333
"de","bruhl",49.397222,8.533611
"de","bruhl",50.833333,6.9
"de","brunsbuttel",53.9,9.15
"de","brunswick",52.266667,10.533333
"de","buchen",49.523889,9.323056
"de","buchloe",48.033333,10.733333
"de","buckeburg",52.266667,9.05
"de","budelsdorf",54.316667,9.683333
"de","budingen",50.3,9.116667
"de","buhl",48.7,8.15
"de","bunde",52.2,8.583333
"de","burbach",50.75,8.083333
"de","buren",51.55,8.566667
"de","burg",52.266667,11.85
"de","burgdorf",52.45,10.016667
"de","burghausen",48.166667,12.833333
"de","burgkirchen",48.166667,12.733333
"de","burglengenfeld",49.205556,12.041389
"de","burgstadt",50.916667,12.816667
"de","burgthann",49.35,11.3
"de","burladingen",48.283333,9.116667
"de","burscheid",51.1,7.116667
"de","burstadt",49.643611,8.46
"de","buttelborn",49.903333,8.523333
"de","butzbach",50.433333,8.683333
"de","butzow",53.85,11.983333
"de","buxtehude",53.45,9.7
"de","cadolzburg",49.45,10.866667
"de","calbe",51.9,11.766667
"de","calw",48.716667,8.733333
"de","castrop-rauxel",51.55,7.316667
"de","celle",52.616667,10.083333
"de","cham",49.225556,12.663611
"de","chemnitz",50.833333,12.916667
"de","clausthal-zellerfeld",51.8,10.333333
"de","cleves",51.783333,6.15
"de","cloppenburg",52.85,8.033333
"de","coburg",50.25,10.966667
"de","coesfeld",51.933333,7.15
"de","cologne",50.933333,6.95
"de","coswig",51.133333,13.583333
"de","coswig",51.883333,12.45
"de","cottbus",51.766667,14.333333
"de","crailsheim",49.15,10.083333
"de","cremlingen",52.25,10.65
"de","crimmitschau",50.816667,12.383333
"de","cuxhaven",53.883333,8.7
"de","dachau",48.266667,11.433333
"de","damme",52.516667,8.2
"de","dannenberg",53.1,11.1
"de","darmstadt",49.870556,8.649444
"de","dassel",51.8,9.683333
"de","datteln",51.666667,7.383333
"de","deggendorf",48.833333,12.966667
"de","delbruck",51.766667,8.566667
"de","delitzsch",51.533333,12.35
"de","delmenhorst",53.05,8.616667
"de","demmin",53.9,13.033333
"de","denkendorf",48.683333,9.316667
"de","denzlingen",48.066667,7.883333
"de","dessau",51.833333,12.25
"de","detmold",51.933333,8.883333
"de","dettingen",48.533333,9.35
"de","dieburg",49.898889,8.844444
"de","diedorf",48.35,10.766667
"de","diepholz",52.6,8.366667
"de","dietzenbach",50.016667,8.783333
"de","diez",50.366667,8.016667
"de","dillenburg",50.733333,8.283333
"de","dillingen",48.566667,10.483333
"de","dillingen",49.35,6.733333
"de","dingolfing",48.633333,12.5
"de","dinkelsbuhl",49.066667,10.316667
"de","dinklage",52.65,8.116667
"de","dinslaken",51.566667,6.733333
"de","ditzingen",48.833333,9.066667
"de","dobeln",51.116667,13.116667
"de","donaueschingen",47.95,8.5
"de","donauworth",48.7,10.8
"de","donzdorf",48.683333,9.816667
"de","dorfen",48.266667,12.15
"de","dormagen",51.1,6.833333
"de","dornstadt",48.466667,9.95
"de","dorsten",51.666667,6.966667
"de","dortmund",51.516667,7.45
"de","dorverden",52.85,9.233333
"de","dossenheim",49.450278,8.674722
"de","dreieich",50,8.7
"de","drensteinfurt",51.8,7.75
"de","dresden",51.05,13.75
"de","drochtersen",53.7,9.383333
"de","drolshagen",51.016667,7.766667
"de","duderstadt",51.516667,10.266667
"de","duisburg",51.433333,6.75
"de","dulmen",51.833333,7.3
"de","duren",50.8,6.483333
"de","durmersheim",48.933333,8.266667
"de","dusseldorf",51.216667,6.766667
"de","eberbach",49.469444,8.992778
"de","ebersbach",48.716667,9.533333
"de","ebersbach",51.016667,14.583333
